_id,categoria,link,nombre,puntuacion,ubicacion,lat,long
Museo del Prado,Museos de arte,http://www.museodelprado.es/,Museo del Prado,4.5,"Calle Ruiz de Alarcon 23, 28014 Madrid España",40.41379255,-3.6920378829351304
Palacio Real de Madrid,"['Lugares históricos', 'Interés arquitectonico']",http://www.patrimonionacional.es/real-sitio/palacios/6039,Palacio Real de Madrid,4.5,"Plaza De Oriente S/n, 28071 Madrid España",40.4183453,-3.7129475887257177
Museo Nacional Thyssen-Bornemisza,Museos especializados,http://www.museothyssen.org/thyssen/home,Museo Nacional Thyssen-Bornemisza,4.5,"Paseo del Prado 8, 28014 Madrid España",40.4162159,-3.6949316886569106
Gran Vía,Puntos emblemáticos y de interés,https://diario.madrid.es/granvia/lo-que-ha-sido/,Gran Vía,4.5,"Street Gran Via, 28013 Madrid España",40.4208889,-3.7065371
Plaza Mayor,"['Lugares históricos', 'Puntos emblemáticos y de interés']",http://www.esmadrid.com/informacion-turistica/plaza-mayor-madrid,Plaza Mayor,4.0,"Calle Gerona 4, 28012 Madrid España",40.4860702,-3.3390054
Estadio Santiago Bernabéu,Campos y estadios,http://www.realmadrid.com/entradas/tour-bernabeu,Estadio Santiago Bernabéu,4.5,"Avenida Concha Espina 1, 28036 Madrid España",40.5902963,-4.1569433
Museo Nacional Centro de Arte Reina Sofía,Museos de arte,http://www.museoreinasofia.es/index_en.html,Museo Nacional Centro de Arte Reina Sofía,4.5,"Calle Santa Isabel 52, 28012 Madrid España",40.0316541,-3.5908194
Museo Arqueológico Nacional,"['Museos de arte', 'Museos de historia']",http://www.man.es/man/en/home,Museo Arqueológico Nacional,4.5,"Calle Serrano 13, 28001 Madrid España",40.4234289,-3.6888894
Templo de Debod,"['Ruinas antiguas', 'Interés arquitectonico']",http://www.madrid.es/portales/munimadrid/es/Inicio/templodebod/?vgnextoid=46caa0d03aa8b010VgnVCM100000d90ca8c0RCRD&vgnextchannel=0c369e242ab26010VgnVCM100000dc0ca8c0RCRD&rmColeccion=30fe658f83a5d010VgnVCM1000000b205a0aRCRD,Templo de Debod,4.0,"Calle Ferraz 1, 28008 Madrid España",40.4240372,-3.7177252129764895
Museo Cerralbo,"['Lugares históricos', 'Interés arquitectonico', 'Museos de arte']",http://www.culturaydeporte.gob.es/mcerralbo/home.html,Museo Cerralbo,4.5,"C/ Ventura Rodríguez, 17, 28008 Madrid España",40.5913942,-4.1458076
Puerta del Sol,Puntos emblemáticos y de interés,http://www.esmadrid.com/informacion-turistica/puerta-del-sol,Puerta del Sol,4.0,"Puerta del Sol, 28013 Madrid España",40.4168582,-3.704298645445678
Paseo del Prado,Puntos emblemáticos y de interés,http://turismomadrid.es/es/,Paseo del Prado,4.5,"Paseo del Prado, Madrid",40.4147816,-3.6943046
Museo Naval,"['Museos especializados', 'Museos de historia']",http://www.fundacionmuseonaval.com/,Museo Naval,4.5,"Paseo del Prado 5, 28014 Madrid España",40.41752575,-3.692380646477055
La Latina,Barrios,http://www.facebook.com/El-campo-de-Cebada-180735625274126,La Latina,4.5,"La Latina, Madrid",40.4112911,-3.7083094
Plaza de Toros de Las Ventas,"['Lugares históricos', 'Puntos emblemáticos y de interés', 'Interés arquitectonico', 'Campos y estadios']",http://www.las-ventas.com/,Plaza de Toros de Las Ventas,4.0,"Calle de Alcala 237, 28028 Madrid España",40.428359,-3.6682744
Catedral de Sta María la Real de la Almudena,Iglesias y catedrales,http://www.catedraldelaalmudena.es/,Catedral de Sta María la Real de la Almudena,4.0,"Calle Bailén 10, 28013 Madrid España",40.0286178,-3.6079433
Plaza de Santa Ana,"['Puntos emblemáticos y de interés', 'Parques']",https://www.tripadvisor.es/RestaurantsNear-g187514-d190148-Plaza_de_Santa_Ana-Madrid.html,Plaza de Santa Ana,4.5,"Plaza de Santa Ana, Madrid",40.41480405,-3.700791305837731
Puerta de Alcalá,"['Puntos emblemáticos y de interés', 'Monumentos y estatuas']",http://www.palaciodehielo.com/,Puerta de Alcalá,4.5,"Plaza de la Independencia, 1, 28001 Madrid España",40.4203456,-3.6888705
Mementorium,Teatros,http://www.mementorium.com/,Mementorium,5.0,"Calle Embajadores 35, 28012 Madrid España",40.4048383,-3.702243
Parque Madrid Río,Parques,http://www.madrid.es/portales/munimadrid/es/Inicio/Ayuntamiento/Urbanismo-e-Infraestructuras/Parque-Madrid-Rio?vgnextfmt=default&vgnextoid=4fec1d25e5356310VgnVCM2000000c205a0aRCRD&vgnextchannel=8dba171c30036010VgnVCM100000dc0ca8c0RCRD,Parque Madrid Río,4.5,"Paseo de la Ermita del Santo 14 16, 28011 Madrid España",40.405812,-3.724589
CaixaForum,Museos especializados,http://caixaforum.es/es/madrid/home,CaixaForum,4.5,"Paseo Prado 36, 28014 Madrid España",40.41113955,-3.6935678945041395
Museo Lázaro Galdiano,Museos de arte,http://www.museolazarogaldiano.es/,Museo Lázaro Galdiano,4.5,"Calle Serrano 122, 28006 Madrid España",40.4526451,-3.6808674
Plaza de Oriente,Puntos emblemáticos y de interés,No disponible,Plaza de Oriente,4.5,"Calle de Bailén, 28013 Madrid España",40.4204171,-3.7128532
Casa Museo Lope de Vega,"['Museos especializados', 'Museos de historia']",http://www.casamuseolopedevega.org/es/,Casa Museo Lope de Vega,4.5,"C/ Cervantes, 11, 28014 Madrid España",40.3284236,-3.860283184863416
Ermita De San António De La Florida,"['Lugares religiosos', 'Iglesias y catedrales']",http://sanantoniodelaflorida.es/,Ermita De San António De La Florida,4.5,"Glorieta de San Antonio de La Florida 4, 28008 Madrid España",40.425688,-3.7253216
Malasaña,Barrios,tel:%2B34%20910%2017%2077%2004,Malasaña,4.5,"Calle Manuela Malasana 20, 28004 Madrid España",40.3217556,-3.7119874
Fuente de Cibeles,Fuentes,https://www.esmadrid.com/en/tourist-information/fuente-de-la-cibeles,Fuente de Cibeles,4.5,"Fuente de Cibeles, Madrid",40.4193299,-3.6930907
Barrio de Las Letras,Barrios,No disponible,Barrio de Las Letras,4.5,"Plaza de las Cortes, 28014 Madrid España",40.4151484,-3.6944117
Zoo Aquarium de Madrid,"['Zoos', 'Acuarios']",http://www.zoomadrid.com/,Zoo Aquarium de Madrid,4.0,"Casa de Campo, s/n, 28011 Madrid España",40.4256828,-3.7524319
Museo del Romanticismo,Museos especializados,http://www.mecd.gob.es/mromanticismo/inicio.htm,Museo del Romanticismo,4.5,"Calle de San Mateo 13, 28004 Madrid España",40.4259018,-3.6987822802496586
El Rastro,Mercadillos,http://www.madridtourist.info/rastro_market.html,El Rastro,4.0,"Plaza de Cascorro, 28005 Madrid España",40.4109829,-3.70735
Edificio Metrópolis,Interés arquitectonico,https://www.esmadrid.com/en/tourist-information/edificio-metropolis,Edificio Metrópolis,4.5,"Calle de Alcalá 42, 28014 Madrid España",40.4182074,-3.696513838467072
Teatro Lope de Vega,Teatros,https://www.stage.es/musicales/el-rey-leon,Teatro Lope de Vega,4.0,"Calle Gran Vía, 57, 28013 Madrid España",40.47083205,-3.871344282431271
Jardines de Sabatini,Jardines,http://www.esmadrid.com/informacion-turistica/jardines-de-sabatini,Jardines de Sabatini,4.0,"Calle Bailen 2, 28013 Madrid España",40.0286178,-3.6079433
Museo de la Real Academia de Bellas Artes de San Fernando,Museos de arte,http://www.realacademiabellasartessanfernando.com/es,Museo de la Real Academia de Bellas Artes de San Fernando,4.5,"Calle Alcala 13, 28014 Madrid España",40.4176524,-3.7006145
Monasterio de las Descalzas Reales,Museos especializados,http://www.patrimonionacional.es/real-sitio/monasterio-de-las-descalzas-reales,Monasterio de las Descalzas Reales,4.0,"Plaza de las Descalzas, 28013 Madrid España",40.4182761,-3.7064915
Parque del Oeste,Parques,http://www.esmadrid.com/informacion-turistica/parque-del-oeste,Parque del Oeste,4.5,"Paseo Moret 2, 28008 Madrid España",40.4340388,-3.7216644
Estádio Cívitas Metropolitano,Campos y estadios,http://www.atleticodemadrid.com/,Estádio Cívitas Metropolitano,4.5,"Av de Luis Aragones,4, 28022 Madrid España",40.4384092,-3.6033024
Casa de Campo,"['Lugares históricos', 'Parques']",https://www.esmadrid.com/informacion-turistica/casa-de-campo,Casa de Campo,4.0,"Paseo de la Puerta del Angel 1, 28011 Madrid España",40.4184928,-3.7350249
Fundación Mapfre Recoletos,Puntos emblemáticos y de interés,http://www.fundacionmapfre.org/fundacion/es_es/exposiciones/sala-recoletos/,Fundación Mapfre Recoletos,4.5,"Paseo Recoletos 25, 28004 Madrid España",40.42304,-3.6919524
San Jerónimo el Real,Museos de arte,No disponible,San Jerónimo el Real,4.0,"Calle Moreto 4, 28014 Madrid España",40.41450495,-3.690951065563725
Teatro Real,Museos de arte,No disponible,Teatro Real,4.0,"Plaza de Isabel II, 29013 Madrid España",40.41815215,-3.709463045445115
Teleférico de Madrid,Tranvías,http://teleferico.emtmadrid.es/,Teleférico de Madrid,3.5,"Paseo del Pintor Rosales s/n, 28008 Madrid España",40.426924,-3.7197935
Mercado de La Paz,Mercadillos,http://www.mercadodelapaz.com/,Mercado de La Paz,4.5,"Calle Ayala 28, 28001 Madrid España",40.42718735,-3.6857741915738558
Teatro Lara,Teatros,http://www.astyaro.com/,Teatro Lara,4.0,"Corredera Baja de San Pablo 15, 28004 Madrid España",40.4221297,-3.7043663
Plaza de la Villa,"['Lugares históricos', 'Puntos emblemáticos y de interés']",https://www.tripadvisor.es/RestaurantsNear-g187514-d246518-Plaza_de_la_Villa-Madrid.html,Plaza de la Villa,4.0,"Plaza de la Villa, Madrid",40.415209000000004,-3.710400431485093
Mercado de Antón Martín,Mercadillos,http://www.mercadoantonmartin.com/,Mercado de Antón Martín,4.5,"Calle Santa Isabel 5, 28012 Madrid España",40.625960500000005,-3.9079925050730413
Primark,Grandes almacenes,https://stores.primark.com/spain/madrid/calle-gran-via-32,Primark,4.0,"Calle Gran Vía 32, 28013 Madrid España",40.4716049,-3.8716913
Biblioteca Nacional de España,Bibliotecas,http://www.bne.es/,Biblioteca Nacional de España,4.5,"Paseo Recoletos 18-20, 28001 Madrid España",40.423998,-3.6907533
Casa de la Panaderia,"['Lugares históricos', 'Interés arquitectonico']",tel:%2B34%20915%2088%2020%2072,Casa de la Panaderia,4.5,"Plaza Mayor 27, 28012 Madrid España",40.4158894,-3.7073989350420167
Teatro Español,Teatros,https://www.teatroespanol.es/,Teatro Español,4.5,"Calle Principe 25, 28014 Madrid España",40.5915504,-4.1501035
Palacio Real de El Pardo,Lugares históricos,http://www.patrimonionacional.es/Home/Palacios-Reales/Palacio-Real-de-El-Pardo/Horario.aspx,Palacio Real de El Pardo,4.0,"Calle Manuel Alonso s/n El Pardo, 28048 Madrid España",40.5203469,-3.7767494
Paseo de la Castellana,"['Barrios', 'Puntos emblemáticos y de interés', 'Paseos por zonas históricas']",http://auschwitz.net/,Paseo de la Castellana,4.0,"Paseo de la Castellana, Madrid",40.4304236,-3.6890223
Parque Lineal Del Manzanares,Parques,http://www.parquelineal.es/introduccion/index.php,Parque Lineal Del Manzanares,4.5,"Parque Lineal Del Manzanares, Madrid",40.3714504,-3.682896658547712
La Caja Lista,Teatros,http://lacajalistateatro.com/,La Caja Lista,5.0,"Calle Canillas Nº 29, 28002 Madrid España",40.4438754,-3.6693273
Cerro del Tío Pío,Parques,https://www.esmadrid.com/en/tourist-information/cerro-tio-pio-park,Cerro del Tío Pío,4.5,"Calle de Benjamín Palencia 2, 28038 Madrid España",40.3943987,-3.6439587
Teatro Rialto,Teatros,http://www.teatrevictoria.com/,Teatro Rialto,4.0,"Calle Gran Via 54, 28004 Madrid España",40.470456999999996,-3.8714145432576768
Calle de Alcalá,Puntos emblemáticos y de interés,https://www.tripadvisor.es/RestaurantsNear-g187514-d7824943-Calle_de_Alcala-Madrid.html,Calle de Alcalá,4.5,"Calle de Alcalá, Madrid",40.4418595,-3.6232585
Banco de España,Interés arquitectonico,No disponible,Banco de España,4.0,"Calle de Alcala, 48, 28014 Madrid España",40.419174,-3.6947303
Teatro Calderón,"['Ópera', 'Teatros']",http://teatrocalderon.es/,Teatro Calderón,4.0,"Ronda Atocha 18, 28012 Madrid España",40.4065721,-3.697498
Teatro de la Zarzuela,Teatros,http://teatrodelazarzuela.mcu.es/,Teatro de la Zarzuela,4.5,"Calle Jovellanos 4, 28014 Madrid España",40.4172586,-3.6971936762224806
Museo de America,Museos de historia,http://www.mecd.gob.es/museodeamerica/en/el-museo.html,Museo de America,4.0,"Avenida de los Reyes Catolicos, 6, 28040 Madrid España",40.43828685,-3.721583300844946
Palacio de los Deportes,Complejos deportivos,http://palaciodedeportes.com/,Palacio de los Deportes,4.0,"Plaza de Felipe II 4, 28009 Madrid España",40.54083275,-3.6324140316425124
El Oso y el Madroño,Puntos emblemáticos y de interés,No disponible,El Oso y el Madroño,4.0,"Plaza de La Puerta del Sol s/n, 28013 Madrid España",40.4168689,-3.7024496
Museo del Ferrocarril de Madrid,"['Museos especializados', 'Museos de historia']",http://www.museodelferrocarril.org/,Museo del Ferrocarril de Madrid,4.0,"Paseo Delicias 61, 28045 Madrid España",40.3993218,-3.6921489
Corral De La Moreria,Cenas con espectáculo,http://www.corraldelamoreria.com/,Corral De La Moreria,4.5,"Calle Morería, 17, 28005 Madrid España",40.4127674,-3.7141526
Cripta de la Almudena,Puntos emblemáticos y de interés,http://criptaalmudena.archimadrid.es/,Cripta de la Almudena,4.5,"Calle Mayor 90, 28013 Madrid España",40.481277,-3.3687056
Teatro Coliseum,Teatros,http://www.teatromadrid.es/teatro-coliseum?tb_orderby=popular,Teatro Coliseum,4.0,"Gran Vía 78, 28013 Madrid España",40.4232626,-3.7103414
Mercado San Fernando,"['Mercadillos', 'Mercados de agricultores']",http://www.mercadodesanfernando.es/,Mercado San Fernando,4.0,"Calle Embajadores 41, 28012 Madrid España",40.4048383,-3.702243
Museo Casa de la Moneda,Museos especializados,http://www.museocasadelamoneda.es/,Museo Casa de la Moneda,4.5,"Calle Doctor Esquerdo 36, 28009 Madrid España",40.4133646,-3.6707516
Iglesia de San Manuel y San Benito,Lugares religiosos,http://www.samasabe.es/,Iglesia de San Manuel y San Benito,4.5,"Calle Alcala 83, 28001 Madrid España",40.4206967,-3.6851451
La Orden Escape Room,Juegos de escape,http://laordenescape.com/,La Orden Escape Room,5.0,"Calle Tomás Borrás, 10, 28045 Madrid España",40.39541319999999,-3.6974829310646067
Puerta de Toledo,"['Puntos emblemáticos y de interés', 'Monumentos y estatuas']",https://www.tripadvisor.es/RestaurantsNear-g187514-d244296-Puerta_de_Toledo-Madrid.html,Puerta de Toledo,4.0,"Puerta de Toledo, Madrid",40.4070507,-3.7110664
Plaza Colón,Puntos emblemáticos y de interés,https://www.tripadvisor.es/RestaurantsNear-g187514-d532192-Plaza_Colon-Madrid.html,Plaza Colón,4.0,"Plaza Colón, Madrid",40.2971948,-3.4323455
Campo del Moro,Parques,http://www.madrid-tourist.com/madrid-attractions/campo-moro-moor-park-madrid.html,Campo del Moro,4.0,"Paseo de la Virgen del Puerto 1, 28005 Madrid España",40.4109076,-3.7213964
Fox In A Box Madrid,"['Juegos de escape', 'Centros de juego y entretenimiento']",http://www.foxinaboxmadrid.com/,Fox In A Box Madrid,5.0,"Calle Infantas, 25, 28004 Madrid España",40.4201396,-3.6975567
Iglesia de Santa Bárbara (Salesas Reales),Lugares religiosos,http://www.parroquiadesantabarbara.es/,Iglesia de Santa Bárbara (Salesas Reales),4.5,"Calle Barbara de Braganza 3, 28004 Madrid España",40.4077497,-3.8839429
Plaza del Callao,Puntos emblemáticos y de interés,https://www.tripadvisor.es/RestaurantsNear-g187514-d4559139-Plaza_del_Callao-Madrid.html,Plaza del Callao,4.0,"Plaza del Callao, Madrid",40.4200671,-3.7057727
Calle Mayor,Puntos emblemáticos y de interés,https://www.tripadvisor.es/RestaurantsNear-g187514-d7974565-Calle_Mayor-Madrid.html,Calle Mayor,4.0,"Calle Mayor, Madrid",40.4157647,-3.7094753
Basílica de San Miguel,Lugares religiosos,http://www.bsmiguel.es/,Basílica de San Miguel,4.5,"Calle San Justo 4, 28005 Madrid España",40.3585754,-3.7819123
Cuatro Torres Business Area,Puntos emblemáticos y de interés,https://www.tripadvisor.es/RestaurantsNear-g187514-d4722358-Cuatro_Torres_Business_Area-Madrid.html,Cuatro Torres Business Area,4.5,"Cuatro Torres Business Area, Madrid",40.4776679,-3.6885374334188397
Iglesia de San Ginés,"['Puntos emblemáticos y de interés', 'Iglesias y catedrales']",http://www.parroquiadesangines.es/,Iglesia de San Ginés,4.0,"Calle del Arenal 13, 28013 Madrid España",40.417005200000006,-3.7070088176475506
Centro de Exposiciones Arte Canal,"['Galerías de arte', 'Museos especializados', 'Museos de historia']",https://www.facebook.com/CentrodeExposicionesArteCanal/,Centro de Exposiciones Arte Canal,4.0,"Paseo Castellana 214, 28046 Madrid España",40.4619897,-3.6896673
Madrid Terror,"['Juegos de escape', 'Teatros', 'Atracciones y actividades']",http://www.madridterror.com/,Madrid Terror,5.0,"Paseo de la Esperanza, 28005 Madrid España",40.4038033,-3.7064862
Essential Flamenco,"['Bares y discotecas', 'Teatros y actuaciones']",http://essentialflamenco.com/,Essential Flamenco,5.0,"Calle de la Cruz 26, 28012 Madrid España",40.4148442,-3.7027669
Monumento a Felipe IV,Monumentos y estatuas,https://www.tripadvisor.es/RestaurantsNear-g187514-d2261632-Monumento_a_Filippo_IV-Madrid.html,Monumento a Felipe IV,4.0,"Monumento a Felipe IV, Madrid",40.41833185,-3.712196548541667
Teatros Luchana,Teatros,http://teatrosluchana.es/,Teatros Luchana,4.0,"Calle Luchana 38, 28010 Madrid España",40.4318686,-3.6982529
Palacio de Gaviria,"['Puntos emblemáticos y de interés', 'Interés arquitectonico', 'Museos de arte']",http://revolucionariosmadrid.com/,Palacio de Gaviria,4.5,"Calle del Arenal 9, 28013 Madrid España",40.4169317,-3.7061643658559222
Iglesia de San Isidro,Iglesias y catedrales,http://www.osmtj.org/,Iglesia de San Isidro,4.0,"Calle de Toledo 37, 28005 Madrid España",40.4129657,-3.706994325237793
Iglesia castrense de Madrid,Iglesias y catedrales,http://www.arzobispadocastrense.com/index.php/arzobispado/iglesia-catedral-de-las-fas,Iglesia castrense de Madrid,4.0,"Calle Sacramento 11, 28005 Madrid España",40.4146506,-3.712181705007944
Puerta de Europa - Torres KIO,Puntos emblemáticos y de interés,No disponible,Puerta de Europa - Torres KIO,4.0,"Plaza de Castilla, 28046 Madrid España",40.4661924,-3.6888341
Edificio Telefónica,"['Puntos emblemáticos y de interés', 'Interés arquitectonico']",http://espacio.fundaciontelefonica.com/,Edificio Telefónica,4.0,"Calle Gran Via 28, 28004 Madrid España",40.4718419,-3.8717434
Cooking Point,Clases de cocina,http://cookingpoint.es/,Cooking Point,5.0,"Calle Moratin 11, 28014 Madrid España",40.412403,-3.6974863321460782
El Rey León,Teatros y actuaciones,http://www.elreyleon.es/,El Rey León,4.5,"Calle Gran Via 57, 28013 Madrid España",40.47083205,-3.871344282431271
Cubick Escape Room,Juegos de escape,http://cubickmadrid.es/,Cubick Escape Room,5.0,"Calle Tellez 3, 28007 Madrid España",40.4042028,-3.6834109247665854
Plaza de la Independencia,Puntos emblemáticos y de interés,https://www.tripadvisor.es/RestaurantsNear-g187514-d7138413-Plaza_de_la_Independencia-Madrid.html,Plaza de la Independencia,4.0,"Plaza de la Independencia, Madrid",40.26208295,-4.46628049294435
Real Casa de Correos,Interés arquitectonico,No disponible,Real Casa de Correos,4.0,"Plaza Puerta del Sol 7, 28013 Madrid España",41.10542955,-3.594028171070011
Juego Enigma,Juegos de escape,http://juegoenigmamadrid.es/es,Juego Enigma,5.0,"Calle Nuestra Señora del Carmen 7, 28039 Madrid España",40.6738012,-3.7765264
Puente de Segovia,Puntos emblemáticos y de interés,https://www.tripadvisor.es/RestaurantsNear-g187514-d4606322-Puente_de_Segovia-Madrid.html,Puente de Segovia,4.5,"Puente de Segovia, Madrid",40.413965950000005,-3.722856554592399
Monumento a Cristóbal Colón,"['Puntos emblemáticos y de interés', 'Monumentos y estatuas']",https://www.tripadvisor.es/RestaurantsNear-g187514-d4680994-Monumento_de_Cristobal_Colon-Madrid.html,Monumento a Cristóbal Colón,4.0,"Monumento a Cristóbal Colón, Madrid",40.4252013,-3.6904696
Felipe III Statue,Monumentos y estatuas,https://www.tripadvisor.es/RestaurantsNear-g187514-d4468341-Felipe_III_Statue-Madrid.html,Felipe III Statue,4.0,"Felipe III Statue, Madrid",40.4154017,-3.7073906
Plaza de Isabel II,Puntos emblemáticos y de interés,https://www.tripadvisor.es/RestaurantsNear-g187514-d4324240-Plaza_de_Isabel_II-Madrid.html,Plaza de Isabel II,4.0,"Plaza de Isabel II, Madrid",40.41815215,-3.709463045445115
Madrid Metro,"['Servicios ferroviarios', 'Sistemas de transporte público']",http://www.metromadrid.es/es/index.html,Madrid Metro,4.5,"Madrid Metro, Madrid",40.4215987,-3.719032
Incognito Escape Game,Juegos de escape,http://incognitoescape.es/,Incognito Escape Game,5.0,"Calle Linneo 4, 28005 Madrid España",40.4134222,-3.7205541
El Hachazo,Campos de tiro,http://el-hachazo.com/,El Hachazo,5.0,"Calle de Narciso Serra, 15, 28007 Madrid España",40.4054907,-3.6786022
Calle 365 Callejón Secreto,Bares y discotecas,http://www.calle365madrid.com/,Calle 365 Callejón Secreto,5.0,"Echegaray 18, 28014 Madrid España",40.4151516,-3.6995745
Enigma Expres,Juegos de escape,http://www.enigmaexpres.com/,Enigma Expres,5.0,"Plaza de la Condesa de Gavia 3, 28020 Madrid España",40.4488174,-3.7020378
Fariolen,Spas,http://www.fariolen.com/,Fariolen,4.5,"Calle Lagasca 80, 28001 Madrid España",40.4277645,-3.6850848
Torres Bermejas,"['Cenas con espectáculo', 'Teatros y actuaciones']",http://torresbermejas.com/,Torres Bermejas,4.5,"Mesonero Romanos, 11, 28013 Madrid España",40.4197612,-3.7042344
Windobona Indoor Skydiving,Centros de juego y entretenimiento,http://www.windobona.es/es/home,Windobona Indoor Skydiving,4.5,"Calderilla,16, 28054 Madrid España",40.363303,-3.7402071
Bite The Fly Escape Room,Juegos de escape,http://bitethefly.com/,Bite The Fly Escape Room,5.0,"Calle del Puerto de Pozazal, 4, 28031 Madrid España",40.3799082,-3.6326013
La Quimera Tablao Flamenco,"['Cenas con espectáculo', 'Teatros y actuaciones']",http://tablaolaquimera.com/,La Quimera Tablao Flamenco,4.5,"Calle Cuchilleros 7, 28005 Madrid España",40.4145408,-3.7079542
Kinnaree Thai Masaje,Spas,http://www.kinnaree.es/,Kinnaree Thai Masaje,5.0,"Calle Argensola 11, 28004 Madrid España",40.4255162,-3.694873959069703
Locktopus Escape Game,Juegos de escape,http://locktopusescape.com/,Locktopus Escape Game,5.0,"Calle de la Batalla del Salado 2, 28045 Madrid España",40.404129,-3.6958925
Coco Room Madrid Room Escape,Juegos de escape,http://cocoroom.es/madrid/,Coco Room Madrid Room Escape,5.0,"Calle Moratines, 18, 28005 Madrid España",40.40261495,-3.70398861633452
Teatro Flamenco Madrid,Teatros y actuaciones,http://teatroflamencomadrid.com/,Teatro Flamenco Madrid,4.5,"Calle del Pez, 10, 28004 Madrid España",40.4232134,-3.7045532
BrainBreak,Juegos de escape,http://www.brainbreak.es/,BrainBreak,5.0,"Calle Encomienda 12, 28012 Madrid España",40.4107717,-3.7057225
Exit Salida Atrapado En El Museo,Juegos de escape,http://www.lasalida.net/,Exit Salida Atrapado En El Museo,4.5,"Calle Jesús del Valle, 32, 28004 Madrid España",40.9519993,-3.5241521
Zero Latency,Centros de juego y entretenimiento,http://www.zerolatencyvr.es/,Zero Latency,4.5,"Calle Londres 25, 28028 Madrid España",40.4260839,-3.5235321146457266
Enbabia Bar,Bares y discotecas,http://www.cocteleriaenbabia.es/,Enbabia Bar,5.0,"Calle de Nunez de Arce 9, 28012 Madrid España",40.4154975,-3.7012292
MThai,Spas,http://mthai.es/,MThai,4.5,"Carrera de San Francisco 11 La Latina, 28005 Madrid España",40.4107488,-3.7130365
Tablao Flamenco Las Tablas,"['Conciertos', 'Cenas con espectáculo', 'Teatros y actuaciones']",http://www.lastablasmadrid.com/,Tablao Flamenco Las Tablas,4.5,"Plaza de España 9, 28008 Madrid España",40.4219053,-3.713606
Sunset 80s,Bares y discotecas,http://muyretro.com/?utm_source=Tripadvisor&utm_medium=Link%20visitar%20web%20en%20Tripadvisor,Sunset 80s,5.0,"Calle Huertas 31, 28014 Madrid España",40.6573513,-3.7650906
Yaebi,Juegos de escape,http://yaebi.com/,Yaebi,5.0,"Calle San Jaime 60, 28031 Madrid España",40.4410662,-3.7984336
Dark Street Escape Room,Juegos de escape,http://www.darkstreet.es/,Dark Street Escape Room,5.0,"Calle Amnistia 3, 28013 Madrid España",40.4172676,-3.7104333
Taberna flamenca El Cortijo,"['Cenas con espectáculo', 'Teatros y actuaciones']",http://www.flamenco-shows.com/,Taberna flamenca El Cortijo,4.5,"Calle Josefa Díaz 4, 28038 Madrid España",40.3932312,-3.6579837
MINA MADRID Escape Room,Juegos de escape,http://www.minamadridescaperoom.es/,MINA MADRID Escape Room,5.0,"Calle Sambara 94, 28027 Madrid España",40.4371165,-3.6439051
Five Mon-keys Escape Game,Juegos de escape,http://www.fivemon-keys.com/,Five Mon-keys Escape Game,5.0,"Calle de la Sal 2 1B, 28012 Madrid España",40.4157671,-3.7061973
Turrones Vicens,Tiendas de regalos y especializadas,http://www.vicens.com/en/index.php,Turrones Vicens,4.5,"Calle Mayor 43, 28013 Madrid España",40.4159717,-3.7083349
Planet Club,"['Bares y discotecas', 'Discotecas y salas de baile']",http://www.partyareamadrid.com/,Planet Club,4.5,"Calle del Principe 20, 28012 Madrid España",40.4140691,-3.7001312
Café Berlín,"['Conciertos', 'Discotecas y salas de baile']",http://www.berlincafe.es/,Café Berlín,4.0,"C/ Costanilla de Los Angeles 20, 28013 Madrid España",40.2308813,-3.109092
The X-Door Madrid Gran Vía,Juegos de escape,http://www.thexdoormadrid.com/,The X-Door Madrid Gran Vía,4.5,"Gran Via 16, 28013 Madrid España",40.4197995,-3.6993966
Wellness Boutique Experience,Spas,http://www.wellnessmadrid.com/,Wellness Boutique Experience,5.0,"Calle Campoamor, 5, 28004 Madrid España",40.3260833,-3.7667782
1862 Dry Bar,Bares y discotecas,http://www.1862drybar.com/,1862 Dry Bar,4.5,"C/ Pez 27, 28004 Madrid España",40.5678635,-4.261314
Madrid & Darracott,Vinotecas,https://www.facebook.com/madridanddarracott/,Madrid & Darracott,5.0,"Calle del Duque de Rivas 8, 28012 Madrid España",40.4132266,-3.7065124
Tofuro Experiencias,"['Juegos de escape', 'Búsquedas del tesoro']",https://www.tofuro.com/diversion,Tofuro Experiencias,5.0,"Calle Arganda 33, 28005 Madrid España",40.3201011,-3.6427863
Monkey Donkey,"['Juegos de escape', 'Búsquedas del tesoro', 'Centros de juego y entretenimiento']",https://monkey-donkey.es/,Monkey Donkey,5.0,"Avenida Filipinas, 4, 28003 Madrid España",40.4393392,-3.7116901
The Darkest Room,Juegos de escape,http://thedarkestroom.com/,The Darkest Room,5.0,"Calle de Palencia 31, 28020 Madrid España",40.4498069,-3.70112
La Taberna de Mister Pinkleton,Cenas con espectáculo,http://www.latabernademisterpinkleton.com/,La Taberna de Mister Pinkleton,4.5,"Calle Cuchilleros 7, 28005 Madrid España",40.4145408,-3.7079542
Action Live,Centros de juego y entretenimiento,http://www.actionlive.es/,Action Live,5.0,"Avenida del Monte, 12 El Escorial, 28011 Madrid España",40.6194813,-4.0400213
Bam Karaoke Box Recoletos,Bares de karaoke,http://es.bam-karaokebox.com/,Bam Karaoke Box Recoletos,4.5,"Calle Recoletos 23, 28001 Madrid España",40.421281,-3.6887568
AlcatraXcape,Juegos de escape,http://www.alcatraxcape.com/,AlcatraXcape,5.0,"Calle Martin de los Heros, 75, 28008 Madrid España",40.430851,-3.7191744
La Venencia,Bares y discotecas,tel:%2B34%20914%2029%2073%2013,La Venencia,4.5,"Calle Echegaray 7, 28014 Madrid España",40.4157993,-3.6995741
Bad Company 1920,Bares y discotecas,https://www.facebook.com/badcompany1920/?ref=page_internal,Bad Company 1920,5.0,"Calle de Tudescos, 04, 28004 Madrid España",40.4210909,-3.7056089
La Cronosfera Agencia del Tiempo,Juegos de escape,http://www.lacronosfera-agenciadeltiempo.com/,La Cronosfera Agencia del Tiempo,5.0,"Calle Tablada 4, 28039 Madrid España",40.7041405,-4.1295269
El Secreto de Madrid. ESCAPE EXTERIOR,Juegos de escape,http://elsecretodemadrid.es/,El Secreto de Madrid. ESCAPE EXTERIOR,4.5,"Plaza de España, 11, 28008 Madrid España",40.422298233333336,-3.7140252
Real Fábrica,Tiendas de regalos y especializadas,http://realfabrica.com/,Real Fábrica,5.0,"Calle de Cervantes, 9, 28014 Madrid España",40.414889,-3.6945481
Esfinge Escape Room,Juegos de escape,http://esfinge-escape.com/,Esfinge Escape Room,5.0,"Calle Canillas 12, 28002 Madrid España",40.4438754,-3.6693273
Cafe Ziryab,"['Cenas con espectáculo', 'Teatros y actuaciones']",http://www.cafeziryab.com/,Cafe Ziryab,4.5,"Paseo Esperanza 17, 28005 Madrid España",40.4021676,-3.7050944
La Trocha,Bares y discotecas,http://www.facebook.com/Trocha-el-lugar-de-la-caipirinha-161393137351173,La Trocha,5.0,"Calle Huertas 55, 28014 Madrid España",41.0610748,-3.5456222
Gourmet Traditional Paella&Sangria Cooking Class,Clases de cocina,https://www.facebook.com/GourmetTraditionalPaellaSangria/?modal=admin_todo_tour,Gourmet Traditional Paella&Sangria Cooking Class,5.0,"Calle de San Lorenzo 20, 28004 Madrid España",40.4249623,-3.6987093
A Punto Escuela De Cocina,Clases de cocina,https://apuntococina.com/,A Punto Escuela De Cocina,4.5,"Calle Farmacia 6, 28004 Madrid España",40.4238492,-3.7011027
Antigua Casa Talavera,Tiendas de regalos y especializadas,http://www.antiguacasatalavera.com/,Antigua Casa Talavera,5.0,"Calle Isabel La Catolica 2, 28013 Madrid España",40.6184884,-3.4002397
Del Diego Cocktail Bar,Bares y discotecas,http://www.deldiego.com/Bienvenida.html,Del Diego Cocktail Bar,4.5,"Calle de La Reina 12, 28004 Madrid España",40.4200269,-3.699222
Sidrería El Tigre - Tapas Caseras,Bares y discotecas,http://eltigre.delsurweb.com/,Sidrería El Tigre - Tapas Caseras,4.0,"Calle de las Infantas 30, 28004 Madrid España",40.4203176,-3.6985479
Road Out Escape Room,Juegos de escape,http://roadoutescaperoom.com/,Road Out Escape Room,5.0,"Calle Electrónica 6, 28027 Madrid España",40.440975,-3.6539816
Beer Pong Madrid,Bares y discotecas,http://www.beerpongmadrid.es/,Beer Pong Madrid,5.0,"Calle Doctor Fourquet, 20, 28012 Madrid España",40.4074694,-3.6977562
Centro De Estética Germaine Goya,Spas,http://germainegoyamadrid.com/,Centro De Estética Germaine Goya,5.0,"Calle Alcantara 15, 28006 Madrid España",40.4327997,-3.6734275
La Santoria,Bares y discotecas,No disponible,La Santoria,4.5,"Calle Lope de Vega 30, 28014 Madrid España",40.4298221,-3.5267301
Tablao Flamenco 1911,Cenas con espectáculo,http://tablaoflamenco1911.com/es/,Tablao Flamenco 1911,4.5,"Plaza de Santa Ana 15, 28012 Madrid España",40.4150422,-3.7016558
La Coquette,Bares y discotecas,http://www.facebook.com/La-Coquette-Blues-Bar-335324683222436,La Coquette,4.5,"Calle Hileras 14, 28013 Madrid España",40.4176751,-3.7076269
Civitatis,"['Visitas urbanas guiadas', 'Tours de varios días', 'Tours culturales', 'Tours cinematográficos y televisivos', 'Tours nocturnos', 'Visitas turísticas guiadas', 'Visitas guiadas a fábricas', 'Rutas fotográficas', 'Recorridos de compras', 'Paseos en globo', 'Taxis y lanzaderas', 'Recorridos por parajes naturales', 'Visitas arqueológicas guiadas', 'Excursiones de un día']",tel:%2B34910780507,Civitatis,5.0,"Civitatis, Madrid",40.4165218,-3.7069612
Zig Zag Escape Room,Juegos de escape,http://www.zigzagescaperoom.com/,Zig Zag Escape Room,5.0,"Calle Parra 41, 28025 Madrid España",40.3580612,-3.8923801
El Brabantino,Tiendas de regalos y especializadas,tel:%2B34%20680%2071%2070%2035,El Brabantino,5.0,"Calle Fray Ceferino Gonzalez, 5, 28005 Madrid España",40.4088704,-3.7060054
Tablao De La Villa,Cenas con espectáculo,http://www.tablaodelavilla.com/,Tablao De La Villa,5.0,"Calle Torija 7, 28013 Madrid España",40.4207332,-3.7103814
Sala Temple Flamenco,"['Teatros', 'Cenas con espectáculo', 'Teatros y actuaciones']",http://salatemple.es/,Sala Temple Flamenco,5.0,"Cuesta de San Vicente 40, 28008 Madrid España",40.4204627,-3.7177624
Santamaría La Coctelería de al lado,Bares y discotecas,http://santamariacocteleria.com/,Santamaría La Coctelería de al lado,5.0,"Calle Ballesta, 6, 28004 Madrid España",40.421321,-3.7035291
Mercado de Motores,Tiendas de regalos y especializadas,http://www.facebook.com/mercadodemotores,Mercado de Motores,4.5,"Paseo Delicias 61, 28045 Madrid España",40.3993218,-3.6921489
Virtual Arena,Centros de juego y entretenimiento,http://virtualarena.games/,Virtual Arena,4.5,"Tomás Bretón, 52, 28045 Madrid España",40.3968717,-3.6916988
Scavenger Escape Madrid,"['Juegos de escape', 'Búsquedas del tesoro']",http://www.scavengerescape.com/es/madrid,Scavenger Escape Madrid,4.5,"Calle de la Palma 14, 28004 Madrid España",40.426261,-3.7025964
Escape Khaos,Juegos de escape,http://www.escapekhaos.com/,Escape Khaos,5.0,"Calle de Jeronimo de La Quintana 10, 28010 Madrid España",40.431361,-3.7043394
Vinícola Mentridana,Bares y discotecas,https://www.facebook.com/vinicolamentridana/,Vinícola Mentridana,4.5,"Calle de San Eugenio 9, 28012 Madrid España",40.4106999,-3.6978462
Casa Hernanz Alpargatería,Tiendas de regalos y especializadas,http://www.alpargateriahernanz.com/,Casa Hernanz Alpargatería,4.5,"Calle Toledo 18, 28005 Madrid España",40.3567087,-3.884885260226951
Experiencia Escape Room,Juegos de escape,http://experienciaescape.com/,Experiencia Escape Room,4.5,"Calle De Ramon Sainz 34, 28025 Madrid España",40.3868913,-3.7371234
Gourmet Madrid Tours,"['Visitas turísticas guiadas', 'Tours privados', 'Tours gastronómicos', 'Catas y visitas vinícolas guiadas']",tel:%2B34%20917%2071%2002%2016,Gourmet Madrid Tours,5.0,"Gourmet Madrid Tours, Madrid",40.4162707,-3.6778512
Art Thai Massage,Spas,http://www.masajethaimadrid.com/,Art Thai Massage,5.0,"Calle Carranza 22, 28004 Madrid España",40.429627,-3.7050514
Madrid al Cubo,Tiendas de regalos y especializadas,https://www.facebook.com/madridalcubo/,Madrid al Cubo,5.0,"Calle Cruz, 35, 28012 Madrid España",40.4148093,-3.7026848
Nuevo Teatro Alcalá,Teatros y actuaciones,http://www.teatroalcalamadrid.com/,Nuevo Teatro Alcalá,4.0,"C/ Alcala, 28009 Madrid España",40.4207361,-3.6848303
Escuela de Arroces y Paellas Madrid,Clases de cocina,http://www.escueladearrocesypaellas.com/madrid,Escuela de Arroces y Paellas Madrid,5.0,"Calle Plomo 10, 28045 Madrid España",40.62614415,-4.020733200000002
Fundación Juan March,"['Conciertos', 'Jardines', 'Museos de arte']",http://www.march.es/,Fundación Juan March,4.5,"Calle Castelló 77, 28006 Madrid España",40.4312084,-3.6812224
Escuela Cocinea,Clases de cocina,http://cocinea.es/,Escuela Cocinea,5.0,"Calle Plomo 10, 28045 Madrid España",40.62614415,-4.020733200000002
Lovo Bar,Bares y discotecas,http://www.lovobar.com/,Lovo Bar,4.5,"Calle De Echegaray, 20, 28014 Madrid España",40.4142217,-3.6995308
Café de Chinitas,Cenas con espectáculo,http://www.chinitas.com/,Café de Chinitas,4.0,"Calle Torija 7, 28013 Madrid España",40.4207332,-3.7103814
Cerveceria Uceda,Bares y discotecas,http://m.facebook.com/cervezasuceda/,Cerveceria Uceda,4.5,"Calle Aquitania 59, 28032 Madrid España",40.4187249,-3.618146
The Safekey Escape Room,Juegos de escape,http://www.thesafekey.es/,The Safekey Escape Room,5.0,"Calle de Fernando Chueca Goitia 52, 28051 Madrid España",40.3620088,-3.5933926
Urban Chic Estetic,Spas,http://www.urbanchicestetic.com/,Urban Chic Estetic,4.5,"Carretera de Canillas 6, 28043 Madrid España",40.4649044,-3.6415134
Johnnie Walker Flagship,Tiendas de regalos y especializadas,http://store.johnniewalker.com/,Johnnie Walker Flagship,5.0,"Calle de Serrano 2, 28001 Madrid España",40.4210936,-3.6880723
La Tienda de la Cerveza,Bares y discotecas,https://www.facebook.com/LaTiendaDeLaCerveza/,La Tienda de la Cerveza,4.5,"Calle Ruda 12, 28005 Madrid España",40.4105514,-3.7080953
Phobia Escape Room,Juegos de escape,http://www.phobiaescaperoom.com/,Phobia Escape Room,4.5,"Calle Constancia 41, 28002 Madrid España",40.4423953,-3.6724417
Alexcaperoom,Juegos de escape,http://alexcaperoom.com/,Alexcaperoom,5.0,"Hermanos Roldan 2, 28027 Madrid España",40.4379113,-3.6453627
La Estación Escape Room,Juegos de escape,http://laestacionescaperoom.es/,La Estación Escape Room,5.0,"Calle Sambara 144, 28027 Madrid España",40.4383689,-3.641112906099676
Desperate Literature,Tiendas de regalos y especializadas,http://www.desperateliterature.com/,Desperate Literature,5.0,"Calle Campomanes 13, 28013 Madrid España",40.4359758,-3.8172902
Escape The Loggia,Juegos de escape,http://escapetheloggia.com/,Escape The Loggia,4.5,"Calle de Linneo 10, 28005 Madrid España",40.4120405,-3.7205356
Kamiraku,Spas,http://www.kamiraku.es/,Kamiraku,4.5,"Calle Jose Ortega y Gasset 11, 28006 Madrid España",40.5202676,-4.2468198
OléOlá,"['Cenas con espectáculo', 'Teatros y actuaciones']",http://oleolashow.com/,OléOlá,5.0,"Calle del Arenal 11, 28013 Madrid España",40.4171669,-3.7065415
Escape The City,Juegos de escape,http://escapethecity.es/,Escape The City,4.5,"Calle del Duque de Alba 15, 28012 Madrid España",40.4115325,-3.7067618
Rent & Roll,"['Visitas urbanas guiadas', 'Tours en bicicleta', 'Tours nocturnos', 'Alquiler de equipamiento', 'Visitas turísticas guiadas']",tel:%2B34%20686%2017%2084%2062,Rent & Roll,5.0,"Rent & Roll, Madrid",40.4150243,-3.689781
We Madrid,"['Visitas urbanas guiadas', 'Tours culturales', 'Tours en segway', 'Paseos en globo', 'Tours gastronómicos']",tel:%2B34%20914%2010%2013%2054,We Madrid,5.0,"We Madrid, Madrid",40.4202414,-3.6992951
Madrid Segway,"['Tours culturales', 'Tours en segway', 'Tours de patrimonio histórico', 'Tours en bicicleta', 'Visitas turísticas guiadas']",tel:%2B34%20608%2041%2095%2013,Madrid Segway,5.0,"Madrid Segway, Madrid",40.421548,-3.7056552
Unreal,Juegos de escape,http://www.unrealroomescape.es/madrid,Unreal,5.0,"Calle Sambara 94, 28027 Madrid España",40.4371165,-3.6439051
Bravo Bike,"['Visitas urbanas guiadas', 'Tours en bicicleta', 'Visitas turísticas guiadas', 'Tours privados', 'Excursiones de un día']",tel:%2B34%20607%2044%2084%2040,Bravo Bike,5.0,"Bravo Bike, Madrid",40.4249171,-3.7150439
Julià Travel Madrid,"['Visitas urbanas guiadas', 'Tours de varios días', 'Tours culturales', 'Tours de patrimonio histórico', 'Visitas turísticas guiadas']",http://www.juliatravel.com/,Julià Travel Madrid,4.0,"Julià Travel Madrid, Madrid",40.4166477,-3.7119904
Sesame,Tiendas de regalos y especializadas,http://www.sesameonline.de/,Sesame,4.5,"Calle Fuencarral 2, 28004 Madrid España",40.4202273,-3.7015206
Komnata Quest,Juegos de escape,http://komnataquest.es/madrid/,Komnata Quest,4.0,"Calle Núñez de Arce 14, 28012 Madrid España",40.3244001,-3.7660002
Lever Escape Room,Juegos de escape,http://leverescaperoom.com/,Lever Escape Room,4.0,"Calle Carranza 5., 28004 Madrid España",40.4289882,-3.7029696
Intuition Escape Room Madrid,Juegos de escape,http://www.intuitionescaperoom.com/,Intuition Escape Room Madrid,5.0,"Calle de Luis Piernas 14, 28017 Madrid España",40.4256928,-3.6543809
IMTBIKE,"['Alquiler de equipamiento', 'Rutas autoguiadas y alquileres']",tel:%2B34%20916%2033%2072%2022,IMTBIKE,5.0,"IMTBIKE, Madrid",40.3907871,-3.8409214
Italiano A Madrid,"['Visitas urbanas guiadas', 'Tours culturales', 'Recorridos a pie', 'Visitas turísticas guiadas', 'Tours privados']",tel:%2B34%20603%2013%2020%2026,Italiano A Madrid,5.0,"Italiano A Madrid, Madrid",38.5375118,-0.1272745
Segway Madrid,Tours en segway,tel:%2B34%20659%2025%2051%2076,Segway Madrid,5.0,"Segway Madrid, Madrid",40.4213294,-3.679633
Vintage Spain,Catas y visitas vinícolas guiadas,tel:%2B34%20947%2031%2001%2026,Vintage Spain,5.0,"Vintage Spain, Madrid",40.4257752,-3.7045532
Madsegs,"['Visitas urbanas guiadas', 'Tours en segway', 'Visitas turísticas guiadas']",tel:%2B34%20637%2026%2038%2086,Madsegs,5.0,"Madsegs, Madrid",40.4092148,-3.7210487
VIAJES GRAN VÍA,"['Visitas urbanas guiadas', 'Tours de varios días', 'Tours culturales', 'Tours en segway', 'Tours de patrimonio histórico', 'Taxis y lanzaderas', 'Recorridos a pie', 'Visitas turísticas guiadas', 'Tours privados', 'Recorridos por parajes naturales', 'Tours en autobús', 'Excursiones de un día']",tel:%2B34917555223,VIAJES GRAN VÍA,5.0,"VIAJES GRAN VÍA, Madrid",40.4216791,-3.7085243
The Best Of Madrid,"['Tours culturales', 'Tours de patrimonio histórico', 'Recorridos a pie', 'Visitas turísticas guiadas', 'Tours privados']",tel:%2B34%20606%2046%2088%2092,The Best Of Madrid,5.0,"The Best Of Madrid, Madrid",38.5376763,-0.1175959
Express Toledo,"['Visitas urbanas guiadas', 'Tours culturales', 'Tours en autobús', 'Excursiones de un día']",tel:%2B34%20910%2011%2097%2060,Express Toledo,4.5,"Express Toledo, Madrid",40.4108664,-3.7085915
Yeah Spain,"['Tours culturales', 'Tours de patrimonio histórico', 'Tours privados']",mailto:info@yeahspain.com,Yeah Spain,5.0,"Yeah Spain, Madrid",40.4108066,-3.7069197
IKONO,"['Tours culturales', 'Rutas fotográficas', 'Excursiones de un día']",tel:%2B34680706367,IKONO,4.0,"IKONO, Madrid",40.4089421,-3.6933891
Real Fábrica de Tapices,Visitas guiadas a fábricas,tel:%2B34%20914%2034%2005%2050,Real Fábrica de Tapices,4.5,"Real Fábrica de Tapices, Madrid",40.405767350000005,-3.68239719069535
Carpetania Madrid,Recorridos a pie,tel:%2B34%20915%2031%2040%2018,Carpetania Madrid,5.0,"Carpetania Madrid, Madrid",40.28820065,-3.698070589436626
TUK TUK MADRID,"['Tours en bicicleta', 'Recorridos a pie', 'Recorridos en motocicleta', 'Tours privados']",http://www.tuktukmadrid.net/,TUK TUK MADRID,5.0,"TUK TUK MADRID, Madrid",40.422448,-3.695577
Colonial Norte,Teatros,http://www.colonialnorte.net/,Colonial Norte,2.5,"Paseo Florida 2, 28008 Madrid España",40.4225834,-3.7210854
Puente del Rey,Puntos emblemáticos y de interés,https://www.tripadvisor.es/RestaurantsNear-g187514-d4458611-Puente_del_Rey-Madrid.html,Puente del Rey,3.5,"Puente del Rey, Madrid",40.4188535,-3.7219671005692194
Torrespaña,Puntos emblemáticos y de interés,https://www.tripadvisor.es/RestaurantsNear-g187514-d6580057-Torrespana-Madrid.html,Torrespaña,3.0,"Torrespaña, Madrid",40.42051635,-3.664196015801887
Fuente de Juan de Villanueva,Fuentes,No disponible,Fuente de Juan de Villanueva,4.0,"Paseo de Camoens, 28008 Madrid España",40.4296916,-3.7239642
Plaza de Lima,Puntos emblemáticos y de interés,No disponible,Plaza de Lima,3.5,"Plaza de Lima, 28036 Madrid España",40.4524529,-3.6902575
Real Conservatorio Superior de Música,"['Lugares históricos', 'Puntos emblemáticos y de interés']",https://www.facebook.com/Real-Conservatorio-Superior-de-M%C3%BAsica-de-Madrid-Oficial-114550645341250/,Real Conservatorio Superior de Música,3.5,"Calle de Santa Isabel 53, 28012 Madrid España",40.4092124,-3.6953036
La Casa del Libro,Bibliotecas,http://www.casadellibro.com/,La Casa del Libro,2.0,"Calle Gran Via 29, 28013 Madrid España",40.47083205,-3.871344282431271
Plaza de Pontejos,Puntos emblemáticos y de interés,https://www.tripadvisor.es/RestaurantsNear-g187514-d4358773-Plaza_de_Pontejos-Madrid.html,Plaza de Pontejos,3.0,"Plaza de Pontejos, Madrid",40.4158945,-3.704352269690546
Ésta es Una Plaza,Puntos emblemáticos y de interés,No disponible,Ésta es Una Plaza,4.0,"Calle del Doctor Fourquet 20B, 28012 Madrid España",40.407397,-3.697861
Real Academia Nacional de Medicina,Puntos emblemáticos y de interés,http://www.ranm.es/,Real Academia Nacional de Medicina,4.0,"Calle Arrieta 12, 28013 Madrid España",40.4192678,-3.710865
Plaza del Doctor Marañón,Puntos emblemáticos y de interés,https://www.tripadvisor.es/Attractions-g187514-Activities-c47-Madrid.html,Plaza del Doctor Marañón,3.5,"Plaza del Doctor Marañón, Madrid",40.4378901,-3.6902923
Calle Raimundo Fernández Villaverde,Puntos emblemáticos y de interés,https://www.tripadvisor.es/RestaurantsNear-g187514-d4787990-Calle_Raimundo_Fernandez_Villaverde-Madrid.html,Calle Raimundo Fernández Villaverde,3.5,"Calle Raimundo Fernández Villaverde, Madrid",40.4464253,-3.6945424
Palacio de Abrantes,"['Puntos emblemáticos y de interés', 'Interés arquitectonico']",No disponible,Palacio de Abrantes,4.0,"Calle Mayor 86, 28013 Madrid España",40.4813769,-3.368592106485166
Plaza de la Republica Argentina,Puntos emblemáticos y de interés,No disponible,Plaza de la Republica Argentina,4.0,"Plaza de la República Argentina El Viso, 28006 Madrid España",40.4449803,-3.685319
Plaza Del Humilladero,Puntos emblemáticos y de interés,No disponible,Plaza Del Humilladero,3.5,"Plaza del Humilladero, 28005 Madrid España",40.4117104,-3.7106624
Real Academia de la Historia,"['Puntos emblemáticos y de interés', 'Interés arquitectonico']",http://www.rah.es/,Real Academia de la Historia,4.0,"Calle del León, 21, 28014 Madrid España",40.4134251,-3.6987900606572115
Estatua de Espartero,Monumentos y estatuas,No disponible,Estatua de Espartero,4.0,"Calle de Alcala 97-101, 28009 Madrid España",40.4246839,-3.6759413
Colonia de la Prensa,Puntos emblemáticos y de interés,https://www.tripadvisor.es/RestaurantsNear-g187514-d7052681-Colonia_de_la_Prensa-Madrid.html,Colonia de la Prensa,3.5,"Colonia de la Prensa, Madrid",40.378259,-3.7477809
Fundación ICO,Museos especializados,http://www.fundacionico.es/,Fundación ICO,4.0,"Calle Zorrilla 3, 28014 Madrid España",40.4168361,-3.6977743
Bingo Royal Odonnell,Casinos,http://www.interjuegos.es/,Bingo Royal Odonnell,3.5,"Calle o'Donnell 21, 28009 Madrid España",40.0379808,-3.5989307
Ermita de la Virgen del Puerto,Puntos emblemáticos y de interés,https://www.tripadvisor.es/RestaurantsNear-g187514-d7032561-Ermita_de_la_Virgen_del_Puerto-Madrid.html,Ermita de la Virgen del Puerto,4.0,"Ermita de la Virgen del Puerto, Madrid",40.415541399999995,-3.7212575466666666
Monumento al Descubrimiento de América,Monumentos y estatuas,https://www.tripadvisor.es/RestaurantsNear-g187514-d12227917-Monumento_al_Descubrimiento_de_America-Madrid.html,Monumento al Descubrimiento de América,3.5,"Monumento al Descubrimiento de América, Madrid",40.42471915,-3.68826388148457
Parque de San Isidro,"['Parques', 'Jardines']",http://www.madrid.es/portales/munimadrid/es/Inicio/Agenda/Parque-de-San-Isidro,Parque de San Isidro,4.0,"Paseo de la Ermita del Santo 74, 28019 Madrid España",40.3999974,-3.7255664
Centro Municipal Pradillo,Complejos deportivos,tel:%2B34%20914%2013%2071%2005,Centro Municipal Pradillo,3.5,"Calle Pradillo 33, 28002 Madrid España",40.44938925,-3.671076925299735
Plaza de Salvador Dali,Puntos emblemáticos y de interés,https://www.tripadvisor.es/Attractions-g187514-Activities-c47-Madrid.html,Plaza de Salvador Dali,3.5,"Plaza de Salvador Dali, Madrid",40.4239498,-3.67337103830343
Plaza de los Carros,Puntos emblemáticos y de interés,https://www.tripadvisor.es/RestaurantsNear-g187514-d4310595-Plaza_de_los_Carros_Madrid-Madrid.html,Plaza de los Carros,3.5,"Plaza de los Carros, Madrid",40.411661249999995,-3.7113119264313976
Calle Cavanilles,Puntos emblemáticos y de interés,https://www.tripadvisor.es/RestaurantsNear-g187514-d4777970-Calle_Cavanilles-Madrid.html,Calle Cavanilles,3.5,"Calle Cavanilles, Madrid",40.4070956,-3.6784618
Plaza Del Cordon,Puntos emblemáticos y de interés,https://www.tripadvisor.es/RestaurantsNear-g187514-d7241890-Plaza_Del_Cordon-Madrid.html,Plaza Del Cordon,3.5,"Plaza Del Cordon, Madrid",40.4141116,-3.7102128812857362
Mezquita de Madrid,Lugares religiosos,http://www.centro-islamico.es/,Mezquita de Madrid,3.5,"Calle Salvador de Madariaga 4, 28027 Madrid España",40.511027299999995,-3.353825007560965
Cine Luna,Teatros,tel:%2B34%20915%2022%2047%2052,Cine Luna,2.5,"Calle Luna 2, 28004 Madrid España",40.3433373,-3.825931307556316
Monumento Victimas 11M,Monumentos y estatuas,No disponible,Monumento Victimas 11M,2.5,"Avda.Ciudad Barcelona,2, 28007 Madrid España",40.4013238,-3.6748372
Parroquia de San Fernando,Puntos emblemáticos y de interés,tel:%2B34%20913%2050%2008%2041,Parroquia de San Fernando,4.0,"Avenida Alberto Alcocer 9, 28036 Madrid España",40.4598907,-3.6873288983299632
Plaza de Margaret Thatcher,Puntos emblemáticos y de interés,https://www.tripadvisor.es/RestaurantsNear-g187514-d17351225-Plaza_de_Margaret_Thatcher-Madrid.html,Plaza de Margaret Thatcher,3.0,"Plaza de Margaret Thatcher, Madrid",40.425956299999996,-3.6895470020079415
Mercado de Las Ventas,Centros comerciales,http://www.mercadoventas.es/,Mercado de Las Ventas,4.0,"Calle de La Virgen de La Alegria 10, 28027 Madrid España",40.434987,-3.6555953
Fundación Manuel Benedito,Museos especializados,http://www.fundacionmanuelbenedito.com/lafundacion.html,Fundación Manuel Benedito,4.5,"Calle Juan Bravo 4, 28006 Madrid España",40.3203802,-3.871296037860734
Tribunal Supremo,"['Interés arquitectonico', 'Edificios gubernamentales']",No disponible,Tribunal Supremo,4.5,"Plaza De La Villa De Paris, 28071 Madrid España",40.425284500000004,-3.6930515787000138
Real Casa de la Aduana,Puntos emblemáticos y de interés,No disponible,Real Casa de la Aduana,3.5,"Calle Alcala 5, 28014 Madrid España",40.4207361,-3.6848303
Palacio de Godoy,"['Lugares históricos', 'Interés arquitectonico']",No disponible,Palacio de Godoy,4.0,"Calle de Bailén, 7, 28013 Madrid España",40.4202731,-3.7126613742764656
Monumento a la Constitución de 1978,Monumentos y estatuas,No disponible,Monumento a la Constitución de 1978,3.5,"Calle de José Gutiérrez Abascal, 4, 28006 Madrid España",40.4402803,-3.6902517
Glorieta de Cuatro Caminos,Puntos emblemáticos y de interés,https://www.tripadvisor.es/RestaurantsNear-g187514-d4784622-Glorieta_de_Cuatro_Caminos-Madrid.html,Glorieta de Cuatro Caminos,3.0,"Glorieta de Cuatro Caminos, Madrid",40.4471513,-3.7036886
Sala Triángulo,Teatros,http://www.teatrotriangulo.com/,Sala Triángulo,3.0,"Calle Zurita 20, 28012 Madrid España",40.4096081,-3.699174
Plaza De San Miguel,Puntos emblemáticos y de interés,https://www.tripadvisor.es/Attractions-g187514-Activities-c47-Madrid.html,Plaza De San Miguel,4.5,"Plaza De San Miguel, Madrid",40.4157141,-3.7094527
Cine Palacio de la Música,Teatros,tel:%2B34%20915%2021%2062%2009,Cine Palacio de la Música,3.5,"Calle Gran Via 35, 28013 Madrid España",40.471293,-3.8713528
Plaza De Las Salesas,Puntos emblemáticos y de interés,No disponible,Plaza De Las Salesas,5.0,"Plaza de Las Salesas, 28004 Madrid España",40.4239947,-3.6948221
Anillo Verde Ciclista de Madrid,Rutas ciclistas,https://www.tripadvisor.es/Attractions-g187514-Activities-c57-Madrid.html,Anillo Verde Ciclista de Madrid,4.0,"Anillo Verde Ciclista de Madrid, Madrid",40.4681595,-3.6285705
Parroquia del Santisimo Sacramento,Iglesias y catedrales,tel:%2B34%20915%2073%2032%2004,Parroquia del Santisimo Sacramento,3.5,"Calle del Alcalde Sainz de Baranda 3, 28009 Madrid España",40.41743765,-3.677438939577553
Biblioteca Centro Pedro Salinas,Bibliotecas,http://www.madrid.es/portales/munimadrid/es/Inicio/Ayuntamiento/Cultura-y-Ocio/Biblioteca-Publica-Centro-Pedro-Salinas?vgnextfmt=default&vgnextoid=67ed995a8bf5d010VgnVCM2000000c205a0aRCRD&vgnextchannel=0c369e242ab26010VgnVCM100000dc0ca8c0RCRD,Biblioteca Centro Pedro Salinas,4.0,"Glorieta Puerta de Toledo 1, 28005 Madrid España",40.4068187,-3.7112805
Monumento a los Abogados de Atocha,"['Puntos emblemáticos y de interés', 'Monumentos y estatuas']",No disponible,Monumento a los Abogados de Atocha,3.0,"Plazuela de Antón Martín, 28012 Madrid España",40.4124749,-3.6995106283532513
Nueve Norte,Teatros,http://www.nuevenorte.com/,Nueve Norte,4.5,"Calle del Norte 9, 28015 Madrid España",40.4260156,-3.707584
Jacinto Benavente Statue,Monumentos y estatuas,No disponible,Jacinto Benavente Statue,4.0,"El Retiro Park, 28009 Madrid España",40.41494595,-3.68328454639349
Centro Sefarad Israel - Palacio de Cañete,Museos de historia,http://www.sefarad-israel.es/,Centro Sefarad Israel - Palacio de Cañete,4.0,"Calle Mayor 69, 28013 Madrid España",40.4151297,-3.71127044720399
Rio Creative Art Center,Galerías de arte,http://creativeartcenter.es/,Rio Creative Art Center,5.0,"Paseo Marques de Monistrol, 5, 28011 Madrid España",40.42334,-3.7286834
Iglesia de las Religiosas de María Inmaculada,Iglesias y catedrales,https://www.religiosasmariainmaculada.org/es/rmi-en-el-mundo/rmi-en-espana,Iglesia de las Religiosas de María Inmaculada,4.0,"Calle Fuencarral 97, 28004 Madrid España",40.4276392,-3.701918
Edificio Catalana de Occidente,Puntos emblemáticos y de interés,No disponible,Edificio Catalana de Occidente,3.0,"Paseo Castellana 50, 28046 Madrid España",40.4353134,-3.6876978860345164
Centro Deportivo Municipal Peñuelas,Complejos deportivos,tel:%2B34%20914%2073%2024%2091,Centro Deportivo Municipal Peñuelas,4.5,"Calle Arganda 25, 28005 Madrid España",40.3201011,-3.6427863
Avenida de la Ilustración,Puntos emblemáticos y de interés,https://www.tripadvisor.es/RestaurantsNear-g187514-d4559015-Avenida_de_la_Ilustracion-Madrid.html,Avenida de la Ilustración,3.5,"Avenida de la Ilustración, Madrid",40.4800441,-3.7183065
Monumento a Cuba,Monumentos y estatuas,https://www.tripadvisor.es/RestaurantsNear-g187514-d12227916-Monumento_a_Cuba-Madrid.html,Monumento a Cuba,3.5,"Monumento a Cuba, Madrid",40.4193427,-3.681543163848728
Estatua del Teniente Jacinto Ruiz,"['Puntos emblemáticos y de interés', 'Monumentos y estatuas']",No disponible,Estatua del Teniente Jacinto Ruiz,4.0,"Plaza del Rey 4, 28004 Madrid España",40.420441,-3.6959227
Plaza de la Cruz Verde,Puntos emblemáticos y de interés,https://www.tripadvisor.es/RestaurantsNear-g187514-d7179264-Plaza_de_la_Cruz_Verde-Madrid.html,Plaza de la Cruz Verde,3.0,"Plaza de la Cruz Verde, Madrid",40.4846194,-3.3681741
Puente de la Reina Victoria,Puntos emblemáticos y de interés,https://www.tripadvisor.es/RestaurantsNear-g187514-d4442934-Puente_de_la_Reina_Victoria-Madrid.html,Puente de la Reina Victoria,3.5,"Puente de la Reina Victoria, Madrid",40.42474545,-3.726679599999996
Antiguo Hospicio,Puntos emblemáticos y de interés,No disponible,Antiguo Hospicio,5.0,"Camino Fuencarral 78, 28035 Madrid España",40.4770672,-3.7335103
Nuestra Señora de las Delicias,Puntos emblemáticos y de interés,No disponible,Nuestra Señora de las Delicias,3.5,"Paseo Delicias 61, 28045 Madrid España",40.3993218,-3.6921489
Calle De San Bernardo,Puntos emblemáticos y de interés,https://www.tripadvisor.es/Restaurants-g187514-Madrid.html,Calle De San Bernardo,4.5,"Calle De San Bernardo, Madrid",40.429962,-3.7057288
Edificio del Círculo de Union Mercantil,"['Puntos emblemáticos y de interés', 'Interés arquitectonico']",No disponible,Edificio del Círculo de Union Mercantil,4.0,"Calle Gran Via 24, 28013 Madrid España",40.4721259,-3.8718142
Parroquia de Nuestra Señora de La Paz,Iglesias y catedrales,http://www.papaz.es/,Parroquia de Nuestra Señora de La Paz,4.0,"Calle Valderribas 37, 28007 Madrid España",40.404971599999996,-3.6758617083982634
Parroquia de Santa Cristina,Puntos emblemáticos y de interés,tel:%2B34%20914%2064%2049%2070,Parroquia de Santa Cristina,4.0,"Paseo Extremadura 32, 28011 Madrid España",40.41396039999999,-3.7282348675295123
Calle De Martín De Los Heros,Puntos emblemáticos y de interés,No disponible,Calle De Martín De Los Heros,3.0,"Calle de Martin de Los Heros, 28008 Madrid España",40.4289351,-3.7175179
Jardin Botanico Alfonso XIII,Jardines,https://www.facebook.com/BotanicoUCM/?__tn__=%2Cg,Jardin Botanico Alfonso XIII,3.0,"Avenida Complutense, 28040 Madrid España",40.4505256,-3.7275238
Monasterio De Montserrat,Lugares religiosos,https://www.facebook.com/montserratico/,Monasterio De Montserrat,4.5,"Calle de San Bernardo 79, 28015 Madrid España",40.42762765,-3.706669585638225
Estatua de Miguel de Cervantes,Monumentos y estatuas,No disponible,Estatua de Miguel de Cervantes,4.0,"Plaza de las Cortes, 28014 Madrid España",40.4151484,-3.6944117
Julia,Monumentos y estatuas,https://www.tripadvisor.es/Attractions-g187514-Activities-c47-Madrid.html,Julia,4.5,"Julia, Madrid",40.4247112,-3.6898593
Plaza De Pedro Zerolo,Puntos emblemáticos y de interés,No disponible,Plaza De Pedro Zerolo,4.0,"Plaza De Pedro Zerolo, 28004 Madrid España",40.4208194,-3.6998843
Plaza Del Conde De Miranda,Puntos emblemáticos y de interés,https://www.tripadvisor.es/Attractions-g187514-Activities-c47-Madrid.html,Plaza Del Conde De Miranda,4.0,"Plaza Del Conde De Miranda, Madrid",40.4148187,-3.7094801592775593
Monumento a Lope de Vega,"['Puntos emblemáticos y de interés', 'Monumentos y estatuas']",https://www.tripadvisor.es/RestaurantsNear-g187514-d4541881-Monumento_de_Lope_de_Vega-Madrid.html,Monumento a Lope de Vega,3.5,"Monumento a Lope de Vega, Madrid",40.416387,-3.6928682
Iglesia Del Santisimo Cristo De La Fe,"['Lugares religiosos', 'Iglesias y catedrales']",https://www.esmadrid.com/informacion-turistica/iglesia-santisimo-cristo-fe?utm_referrer=https%3A%2F%2Fwww.google.com%2F,Iglesia Del Santisimo Cristo De La Fe,4.5,"Calle Atocha 87, 28012 Madrid España",40.4113721,-3.6969777
Buho Real,Teatros,http://www.buhoreal.com/,Buho Real,4.0,"Calle Regueros 5, 28004 Madrid España",40.4245378,-3.6966253
Casa de Calderón de la Barca,"['Puntos emblemáticos y de interés', 'Interés arquitectonico']",tel:%2B34%20942%2058%2000%2033,Casa de Calderón de la Barca,4.0,"Calle Mayor 61, 28013 Madrid España",40.4156062,-3.7098802
Iglesia del Corpus Cristi Madrid,Iglesias y catedrales,No disponible,Iglesia del Corpus Cristi Madrid,4.0,"Calle Punonrostro 1, 28005 Madrid España",40.4145473,-3.7097988
La Encina Teatro,Teatros,http://laencinateatro.com/programacion/rubias,La Encina Teatro,4.5,"Calle De Ercilla, 15, 28005 Madrid España",40.4029431,-3.7028306
Estación De Chamberi,Museos especializados,http://museosmetromadrid.es/museos/estacion-de-chamberi/,Estación De Chamberi,4.5,"Plaza de Chamberí, 28010 Madrid España",40.43279855,-3.6973551668784124
Parque Emperatriz Maria de Austria,Puntos emblemáticos y de interés,http://www.madrid.es/portales/munimadrid/es/Inicio/Ayuntamiento/Direcciones-y-telefonos/Parque-Emperatriz-Maria-de-Austria?vgnextfmt=default&vgnextoid=57fc4fc4583be210VgnVCM1000000b205a0aRCRD&vgnextchannel=9e4c43db40317010VgnVCM100000dc0ca8c0RCRD,Parque Emperatriz Maria de Austria,4.0,"Parque Emperatriz Maria de Austria, Madrid",40.379176650000005,-3.723099207935085
Petrus Estatua,Monumentos y estatuas,http://patrimonioypaisaje.madrid.es/portales/monumenta/es/Monumentos/Monumentos-urbanos/Petrus/,Petrus Estatua,4.0,"Calle Bailen 10 Centro, 28013 Madrid España",40.4202699,-3.7129451
Tribunal de Cuentas,Puntos emblemáticos y de interés,tel:%2B34%20914%2047%2087%2001,Tribunal de Cuentas,3.5,"Calle Fuencarral 81, 28004 Madrid España",40.4257509,-3.7011661
Museo Municipal de Bomberos,Museos especializados,tel:%2B34%20914%2078%2065%2072,Museo Municipal de Bomberos,3.5,"Calle de Boada 4, 28038 Madrid España",40.3949115,-3.6535911
Casa Matesanz,Puntos emblemáticos y de interés,No disponible,Casa Matesanz,4.0,"Calle Gran Via 27, 28013 Madrid España",40.47083205,-3.871344282431271
Parroquia de Nuestra Senora de Guadalupe,Iglesias y catedrales,tel:%2B34%20914%2057%2000%2039,Parroquia de Nuestra Senora de Guadalupe,4.0,"Calle Puerto Rico 1, 28016 Madrid España",40.2283635,-3.8420609
Mercado de la Camara Agraria de la Comunidad de Madrid,Mercados de agricultores,http://camaraagraria.org/,Mercado de la Camara Agraria de la Comunidad de Madrid,4.5,"Paseo de La Puerta del Angel 4, 28011 Madrid España",40.4184928,-3.7350249
Pabellon de Cristal de la Casa de Campo,Palacios de congresos,http://www.madrid-destino.com/es/espacios-y-eventos/instalaciones/pabellon-de-cristal,Pabellon de Cristal de la Casa de Campo,2.5,"Avenida Principal 16, 28011 Madrid España",40.4146087,-3.7393869
Swinton and Grant,Galerías de arte,http://www.swintonandgrant.com/,Swinton and Grant,4.0,"Calle Miguel Servet 21, 28012 Madrid España",40.2908177,-3.6880703
La ley de Snell,Galerías de arte,http://www.laleydesnell.com/,La ley de Snell,5.0,"Calle de San Joaquin No 6 Malasaña, 28004 Madrid España",40.4249709,-3.7008257
Sala Mirador,Teatros,http://www.fcnc.es/,Sala Mirador,3.5,"Calle Doctor Fourquet 31, 28012 Madrid España",40.4070512,-3.6988713
Monumento a Capitán Ángel Melgar,Monumentos y estatuas,http://patrimonioypaisaje.madrid.es/sites/v/index.jsp,Monumento a Capitán Ángel Melgar,4.0,"Calle de Lepanto, 28013 Centro, 28013 Madrid España",40.4179506,-3.7116373
Agrupacion Deportiva Cultural de la Emt,Complejos deportivos,No disponible,Agrupacion Deportiva Cultural de la Emt,3.0,"Calle Viejas, 28046 Madrid España",40.4801847,-3.6832654
Plaza De Chamberí,Puntos emblemáticos y de interés,https://www.tripadvisor.es/Attractions-g187514-Activities-c47-Madrid.html,Plaza De Chamberí,4.0,"Plaza De Chamberí, Madrid",40.43279855,-3.6973551668784124
Jardines de Pablo Sorozabal,"['Parques', 'Jardines']",https://www.madrid.es/portales/munimadrid/es/Inicio/Medio-ambiente/Direcciones-y-telefonos/Jardines-de-Pablo-Sorozabal?vgnextfmt=default&vgnextoid=b53d8464dad45510VgnVCM1000001d4a900aRCRD&vgnextchannel=864f79ed268fe410VgnVCM1000000b205a0aRCRD,Jardines de Pablo Sorozabal,3.5,"Calle del Príncipe de Vergara, 139, 28002 Madrid España",40.4446669,-3.6786026
Monumento a la Infanta Isabel Borbon,Monumentos y estatuas,No disponible,Monumento a la Infanta Isabel Borbon,3.5,"Paseo del Pintor Rosales s/n, 28008 Madrid España",40.426924,-3.7197935
Jardines Del Arquitecto Ribera,Jardines,No disponible,Jardines Del Arquitecto Ribera,3.5,"Calle Barceló, 28004 Madrid España",40.4262576,-3.7012578
Plaza De La Provincia,Puntos emblemáticos y de interés,No disponible,Plaza De La Provincia,3.5,"Plaza de la Provincia, 28012 Madrid España",40.4148032,-3.7060109
Teatro Monumental,Teatros,http://www.rtve.es/,Teatro Monumental,4.5,"Calle Atocha 65, 28012 Madrid España",40.4124685,-3.6991495
Teatro Compac,Teatros,No disponible,Teatro Compac,3.5,"Calle Gran Via 64, 28013 Madrid España",40.47083205,-3.871344282431271
Parroquia Santísimo Cristo De La Victoria,Iglesias y catedrales,https://www.facebook.com/ParroquiaDelSantisimoCristoDeLaVictoria/,Parroquia Santísimo Cristo De La Victoria,4.5,"Calle de Fernando el Católico, 45, 28015 Madrid España",40.4342951,-3.717938
Edificio Castelar,Interés arquitectonico,No disponible,Edificio Castelar,3.5,"Paseo de la Castellana, 50, 28046 Madrid España",40.4353134,-3.6876978860345164
Plaza De Jesús,Puntos emblemáticos y de interés,No disponible,Plaza De Jesús,4.0,"Plaza De Jesús, 28014 Madrid España",40.4143237,-3.6957021
Hospital de la Cruz Roja S. Jose y Sta. Adela,Puntos emblemáticos y de interés,No disponible,Hospital de la Cruz Roja S. Jose y Sta. Adela,4.5,"Avenida Reina Victoria 22-24, 28003 Madrid España",40.6380634,-4.022365
Monumento a Tirso de Molina,Monumentos y estatuas,No disponible,Monumento a Tirso de Molina,4.0,"Plaza Tirso de Molina, 28012 Madrid España",40.30438755,-3.7373042719728495
Parroquia de Nuestra Señora de Madrid,Puntos emblemáticos y de interés,No disponible,Parroquia de Nuestra Señora de Madrid,4.0,"Paseo Castellana 207, 28046 Madrid España",40.4695566,-3.6889509
Museo Del Tarot,Museos especializados,http://www.museodeltarot.com/,Museo Del Tarot,4.5,"Museo Del Tarot, Madrid",40.4182403,-3.7027808
Casa Del Parroco,Puntos emblemáticos y de interés,http://todosobremadrid.com/que-ver/casa-del-parroco-de-la-iglesia-de-san-jose,Casa Del Parroco,4.0,"Alcalá nº 41, 28014 Madrid España",40.4185449,-3.6969767
La Pension de las Pulgas,Teatros,http://lapensiondelaspulgas.com/,La Pension de las Pulgas,5.0,"Calle Huertas 48, 28014 Madrid España",41.0315715,-3.6252834
Estatua Tras Julia,Monumentos y estatuas,No disponible,Estatua Tras Julia,4.0,"Calle del Pez, 28015 Madrid España",40.4237699,-3.7053919
Iglesia de Nuestra Señora Del Pilar,Iglesias y catedrales,http://www.parroquiadelpilar.es/paginas/index.html,Iglesia de Nuestra Señora Del Pilar,3.0,"Calle Juan Bravo 40, 28006 Madrid España",40.320967,-3.8712983
Palacio Bermejillo,Puntos emblemáticos y de interés,No disponible,Palacio Bermejillo,4.0,"Paseo Eduardo Dato 31, 28010 Madrid España",40.43327145,-3.6898342354996894
Parroquia de San Miguel de Chamartín,Iglesias y catedrales,tel:%2B34%20913%2002%2001%2000,Parroquia de San Miguel de Chamartín,4.0,"Avenida Burgos 2, 28036 Madrid España",40.8047023,-3.6254839
Iglesia de San Francisco de Borja,Iglesias y catedrales,tel:%2B34%20915%2076%2006%2007,Iglesia de San Francisco de Borja,4.0,"Calle Serrano 104, 28006 Madrid España",40.4526451,-3.6808674
Monumento a Simón Bolívar,Monumentos y estatuas,No disponible,Monumento a Simón Bolívar,3.0,"Paseo de Camoens, 28008 Madrid España",40.4296916,-3.7239642
Mercadillo de Santa Genoveva,Mercadillos,No disponible,Mercadillo de Santa Genoveva,3.0,"Calle Santa Genoveva, 28017 Madrid España",40.4234182,-3.6491608
Cementerio de Fuencarral,Cementerios,tel:%2B34%20915%2010%2084%2064,Cementerio de Fuencarral,4.0,"Avenida Montecarmelo 10, 28049 Madrid España",40.5112335,-3.6921266
Plaza del Marqués de Salamanca,Puntos emblemáticos y de interés,No disponible,Plaza del Marqués de Salamanca,3.0,"Plaza del Marqués de Salamanca, 28001 Madrid España",40.4298577,-3.6800373
Glorieta de San Antonio,Puntos emblemáticos y de interés,https://www.tripadvisor.es/RestaurantsNear-g187514-d4442939-Glorieta_de_San_Antonio-Madrid.html,Glorieta de San Antonio,4.0,"Glorieta de San Antonio, Madrid",40.4827676,-3.6261661
El Rapto de Europa,"['Puntos emblemáticos y de interés', 'Monumentos y estatuas']",https://www.tripadvisor.es/Attractions-g187514-Activities-c47-Madrid.html,El Rapto de Europa,4.0,"El Rapto de Europa, Madrid",40.464108,-3.5708142
Instituto del Patrimonio Historico Espanol,Puntos emblemáticos y de interés,No disponible,Instituto del Patrimonio Historico Espanol,4.5,"Calle Greco 4, 28011 Madrid España",40.2114395,-3.5721224
Fundación Caja Madrid,Museos especializados,http://www.fundacioncajamadrid.es/,Fundación Caja Madrid,4.0,"Plaza de San Martin 1, 28013 Madrid España",40.4184278,-3.7069791
Museo de la Escultura Abstracta,Museos especializados,No disponible,Museo de la Escultura Abstracta,3.5,"Paseo Castellana 41, 28046 Madrid España",40.4619897,-3.6896673
Calle De José Ortega & Gasset,Puntos emblemáticos y de interés,tel:%2B34%20689%2092%2031%2032,Calle De José Ortega & Gasset,4.0,"Calle De José Ortega & Gasset, Madrid",40.4300171,-3.6807862
Edificio Los Cubos,Puntos emblemáticos y de interés,No disponible,Edificio Los Cubos,3.5,"Calle Albacete 5, 28027 Madrid España",40.4849407,-3.3433227
Iglesia De La Inmaculada y San Pedro Claver,Iglesias y catedrales,No disponible,Iglesia De La Inmaculada y San Pedro Claver,3.5,"Calle de Santa Cruz de Marcenado 23, 28015 Madrid España",40.4295426,-3.7126667
Centro Comercial Gran Vía de Hortaleza,Centros comerciales,http://www.granviadehortaleza.es/,Centro Comercial Gran Vía de Hortaleza,3.5,"Avenida de la Gran Vía de Hortaleza, s/n, 28043 Madrid España",40.468506,-3.6465546
Ministerio de Sanidad,Edificios gubernamentales,https://www.msssi.gob.es/,Ministerio de Sanidad,2.5,"Paseo del Prado 18-20, 28014 Madrid España",40.4145493,-3.6933438
El Mirador,Puntos emblemáticos y de interés,https://www.tripadvisor.es/RestaurantsNear-g187514-d6849451-El_Mirador-Madrid.html,El Mirador,3.0,"El Mirador, Madrid",40.0246881,-3.6005112
Centro Cultural Antonio Machado,Centros cívicos,http://www.madrid.es/portales/munimadrid/es/Inicio/Ayuntamiento/Hacienda/Centro-Cultural-Antonio-Machado-San-Blas-Canillejas-?vgnextfmt=default&vgnextoid=cce43d0b5e71c010VgnVCM1000000b205a0aRCRD&vgnextchannel=5b2a171c30036010VgnVCM100000dc0ca8c0RCRD,Centro Cultural Antonio Machado,3.5,"Calle de San Roman del Valle 8 Arcos, San Blas-Canillejas, 28037 Madrid España",40.421832,-3.6215865
Parroquia San Dámaso,Puntos emblemáticos y de interés,https://parroquiasandamaso.wordpress.com/,Parroquia San Dámaso,3.5,"Calle de Mauricio Legendre 10, 28046 Madrid España",40.4756421,-3.6844597
Monumento a Quevedo,Monumentos y estatuas,No disponible,Monumento a Quevedo,4.0,"Glorieta Quevedo 9, 28015 Madrid España",40.4333123,-3.703982
Teatro de Madrid,Teatros,http://www.teatromadrid.com/,Teatro de Madrid,4.0,"Calle Ilustracion s/n, 28008 Madrid España",40.3144311,-3.7303668
Monumento a Daoiz & Velarde,Monumentos y estatuas,https://www.tripadvisor.es/Restaurants-g187514-Madrid.html,Monumento a Daoiz & Velarde,4.5,"Monumento a Daoiz & Velarde, Madrid",40.417326149999994,-3.6830682588858172
Bingo Riojano,Casinos,tel:%2B34%20915%2032%2056%2061,Bingo Riojano,2.5,"Calle Carretas 14, 28012 Madrid España",40.815963499999995,-3.602886033354606
Parque Eugenia de Montijo,Puntos emblemáticos y de interés,http://www.madrid.es/portales/munimadrid/es/Inicio/Ayuntamiento/Direcciones-y-telefonos/Parque-Eugenia-de-Montijo?vgnextfmt=default&vgnextoid=4d86dd17d93be210VgnVCM1000000b205a0aRCRD&vgnextchannel=9e4c43db40317010VgnVCM100000dc0ca8c0RCRD,Parque Eugenia de Montijo,3.5,"Parque Eugenia de Montijo, Madrid",40.4276313,-3.5290216447455447
Fundacion Casa de Alba,Museos especializados,http://www.minetsoft.com/fundacioncasadealba/curriculum2.asp?P=0&IdMenu=0&ID=1&IDM=0,Fundacion Casa de Alba,3.5,"Calle Princesa 20, 28015 Madrid España",40.347249649999995,-3.8318182500000004
Segundo Monasterio de la Visitacion de Santa Maria,"['Lugares religiosos', 'Iglesias y catedrales']",http://visitacion.es/,Segundo Monasterio de la Visitacion de Santa Maria,4.5,"Calle de San Bernardo 72, 28015 Madrid España",40.42740705,-3.705705730786883
La Real Botica de la Reina Madre,Museos especializados,No disponible,La Real Botica de la Reina Madre,4.0,"Calle Mayor 59, 28005 Madrid España",40.4156105,-3.7098092
Estatua Ataulfo,Monumentos y estatuas,http://patrimonioypaisaje.madrid.es/portales/monumenta/es/Monumentos/Monumentos-urbanos/Ataulfo/,Estatua Ataulfo,4.0,"Calle Bailen 10 Centro, 28013 Madrid España",40.4202699,-3.7129451
Sala Berlanga,Teatros,http://www.salaberlanga.com/,Sala Berlanga,4.0,"Andrés Mellado 53, 28015 Madrid España",40.4358906,-3.7144082
Iglesia de San Pascual,Iglesias y catedrales,No disponible,Iglesia de San Pascual,4.0,"Paseo Recoletos 11, 28004 Madrid España",40.4211962,-3.6927971
Teatro Arenal,Teatros,No disponible,Teatro Arenal,4.0,"Calle Mayor 6, 28013 Madrid España",40.4165514,-3.7054496
Barcelo Park,Puntos emblemáticos y de interés,No disponible,Barcelo Park,4.0,"Calle Beneficencia 3, 28004 Madrid España",40.4256607,-3.7002501
Casa Museo Fuente Del Rey,Museos especializados,http://www.fundacionamyc.org/es/la-fundacio,Casa Museo Fuente Del Rey,5.0,"Calle de la Fuente del Rey, 28023 Madrid España",40.4568447,-3.7739513
Centro Cultural Nicolás Salmerón,Teatros,https://www.facebook.com/CC-NICOLAS-SALMERON-184932661649688/,Centro Cultural Nicolás Salmerón,5.0,"Calle Mantuano 51, 28002 Madrid España",40.4483386,-3.6762648
Casa del Lector,"['Interés arquitectonico', 'Bibliotecas', 'Sitios educativos']",http://casalector.fundaciongsr.com/,Casa del Lector,3.0,"Paseo Chopera 14, 28045 Madrid España",40.3914462,-3.6963221
Parroquia de Santa Teresa y Santa Isabel,"['Interés arquitectonico', 'Iglesias y catedrales']",http://guiadiocesana.archimadrid.org/,Parroquia de Santa Teresa y Santa Isabel,3.5,"Glorieta del Pintor Sorolla 2, 28010 Madrid España",40.435067399999994,-3.6995124738134013
Monument Vasquez De Mella,Monumentos y estatuas,No disponible,Monument Vasquez De Mella,4.0,"Plaza De Pedro Zerolo, 28004 Madrid España",40.4208194,-3.6998843
Immanuel Baptist Church,Iglesias y catedrales,http://www.ibcmadrid.com/,Immanuel Baptist Church,3.5,"Calle Hernandez de Tejada No 4, 28027 Madrid España",40.4468304,-3.6517388
Monumento a Goya,Monumentos y estatuas,No disponible,Monumento a Goya,3.5,"Calle de Goya, 91, 28001 Madrid España",40.4250014,-3.680116
El Huerto del Retiro,Edificios gubernamentales,http://www.actividadesambientalesretiro.com/,El Huerto del Retiro,3.0,"Paseo Fernan Nunez 2, 28009 Madrid España",40.4162585,-3.6800771
Centro Comercial Alcalá Norte,Centros comerciales,http://www.alcalanorte.com/,Centro Comercial Alcalá Norte,3.0,"Calle de Alcalá, 414, 28027 Madrid España",40.4368966,-3.6380768488566813
ContraClub,Teatros,http://contraclub.es/,ContraClub,5.0,"Calle Bailén, 16, 28005 Madrid España",40.412469,-3.7139531
Monumento a Jorge Juan y Santacilia,Monumentos y estatuas,No disponible,Monumento a Jorge Juan y Santacilia,3.5,"Calle de la Armada Española, 28001 Madrid España",40.4240137,-3.6882783
Parroquia del Santísimo Redentor Madrid,Puntos emblemáticos y de interés,No disponible,Parroquia del Santísimo Redentor Madrid,3.5,"Calle Felix Boix 13, 28036 Madrid España",40.46353445,-3.685510574584871
Monumento A Miguel Hidalgo,Monumentos y estatuas,https://www.tripadvisor.es/Attractions-g187514-Activities-c47-Madrid.html,Monumento A Miguel Hidalgo,3.5,"Monumento A Miguel Hidalgo, Madrid",19.3456205,-99.0564738
Monumento a Ramon de Mesonero Romanos,Monumentos y estatuas,No disponible,Monumento a Ramon de Mesonero Romanos,4.0,"Calle Barceló 2, 28004 Madrid España",40.4263943,-3.7003195
Puerta de Madrid,"['Puntos emblemáticos y de interés', 'Monumentos y estatuas']",No disponible,Puerta de Madrid,4.0,"Paseo Fernán Núñez, 28, 28009 Madrid España",40.4162585,-3.6800771
Parroquia de San Juan de Mirasierra,"['Lugares religiosos', 'Iglesias y catedrales']",tel:%2B34%20917%2035%2002%2085,Parroquia de San Juan de Mirasierra,3.5,"Calle Moralzarzal 75, 28034 Madrid España",40.4956881,-3.7157897444954138
Parroquia de María Auxiliadora,Puntos emblemáticos y de interés,tel:%2B34%20915%2006%2021%2007,Parroquia de María Auxiliadora,3.0,"Ronda Atocha 25, 28012 Madrid España",40.4071801,-3.6941708
Hermanas de la Compañía de la Cruz,Iglesias y catedrales,tel:%2B34%20915%2047%2064%2020,Hermanas de la Compañía de la Cruz,5.0,"Calle del Rey Francisco, 19, 28008 Madrid España",40.4267561,-3.7170092
Teatro Sanpol,Teatros,http://www.teatrosanpol.com/,Teatro Sanpol,3.5,"Plaza de San Pol de Mar 1, 28008 Madrid España",40.423949050000004,-3.7269810638801273
Gorongoro Parque de Ocio Infantil,Áreas de recreo al aire libre,tel:%2B34%20914%2031%2006%2045,Gorongoro Parque de Ocio Infantil,3.0,"Avenida de Felipe II 34, 28009 Madrid España",40.32321760000001,-3.8526903637002814
Estatua de Sor Juana Inés de la Cruz,Monumentos y estatuas,No disponible,Estatua de Sor Juana Inés de la Cruz,3.5,"Calle Ferraz 8, 28008 Madrid España",40.4238426,-3.7148858
Real Academia de Ingeniería,"['Puntos emblemáticos y de interés', 'Interés arquitectonico']",No disponible,Real Academia de Ingeniería,4.0,"Calle de Don Pedro 10, 28005 Madrid España",40.4116364,-3.7127526
Universidad Central,Puntos emblemáticos y de interés,No disponible,Universidad Central,4.0,"Calle San Bernardo 47-49, 28015 Madrid España",40.4829687,-3.3693968
Centro Cultural La Corrala,Museos especializados,http://www.uam.es/ss/Satellite/es/1242657634005/contenidoFinal/Centro_Cultural_La_Corrala._Museo_de_Artes___y_Tradiciones_Populares.htm,Centro Cultural La Corrala,4.0,"Calle Carlos Arniches 3 y 5, 28005 Madrid España",40.3201289,-3.8774602
Estatua De Fernando VI,Monumentos y estatuas,No disponible,Estatua De Fernando VI,4.0,"Plaza De La Villa De Paris, 28004 Madrid España",40.424841,-3.693255
Calle De Colón,Puntos emblemáticos y de interés,No disponible,Calle De Colón,3.5,"Calle De Colón, 28004 Madrid España",40.423796,-3.7007121
Parque de Caramuel,Puntos emblemáticos y de interés,https://www.tripadvisor.es/RestaurantsNear-g187514-d7212409-Parque_de_Caramuel-Madrid.html,Parque de Caramuel,3.0,"Parque de Caramuel, Madrid",40.40819675,-3.727483541200324
Iglesia de San Salvador y San Nicolás,Iglesias y catedrales,No disponible,Iglesia de San Salvador y San Nicolás,3.5,"Calle Atocha 58, 28012 Madrid España",40.412026999999995,-3.698856339531379
Museo Nacional de Ciencia y Tecnología,Museos especializados,http://www.muncyt.es/,Museo Nacional de Ciencia y Tecnología,4.0,"Paseo de Las Delicias 61, 28100 Madrid España",40.3993218,-3.6921489
Comunidad Israelita en Madrid,Lugares religiosos,http://www.cjmadrid.org/,Comunidad Israelita en Madrid,5.0,"Calle Balmes 3, 28010 Madrid España",40.4354719,-3.6998934
Presa del Manzanares,Puntos emblemáticos y de interés,https://www.tripadvisor.es/RestaurantsNear-g187514-d4471430-Presa_del_Manzares-Madrid.html,Presa del Manzanares,3.0,"Presa del Manzanares, Madrid",40.6496331,-3.8075522375772426
Parroquia del Inmaculado Corazon de Maria,Iglesias y catedrales,http://www.cormariaferraz.es/,Parroquia del Inmaculado Corazon de Maria,3.5,"Calle Ferraz 74, 28008 Madrid España",40.429077750000005,-3.7198985123235606
Estatua Leovigildo,Monumentos y estatuas,http://patrimonioypaisaje.madrid.es/portales/monumenta/es/Monumentos/Monumentos-urbanos/Leovigildo/,Estatua Leovigildo,3.5,"Calle Bailen 17 Centro, 28013 Madrid España",40.4202699,-3.7129451
Monumento al Pueblo del Dos de Mayo de 1808,Monumentos y estatuas,No disponible,Monumento al Pueblo del Dos de Mayo de 1808,4.0,"Calle Ferraz 4, 28008 Madrid España",40.4234597,-3.714513
Palacio de Congresos de Madrid,Interés arquitectonico,No disponible,Palacio de Congresos de Madrid,3.5,"Paseo Castellana 99, 28046 Madrid España",40.45330985,-3.6918500533616374
Estacion de Paco de Lucia,Puntos emblemáticos y de interés,No disponible,Estacion de Paco de Lucia,3.5,"Calle Costa Brava 18, 28034 Madrid España",40.6358618,-4.0166483
Santuario de Santa Gema,"['Lugares religiosos', 'Iglesias y catedrales']",http://santagema.archimadrid.es/,Santuario de Santa Gema,4.5,"Santuario de Santa Gema, Madrid",40.447720849999996,-3.6818773897996078
Calle De La Cava Baja,Puntos emblemáticos y de interés,https://www.tripadvisor.es/Attractions-g187514-Activities-c47-Madrid.html,Calle De La Cava Baja,4.0,"Calle De La Cava Baja, Madrid",40.4124833,-3.7090651
Monumento a Antonio Bienvenida,Monumentos y estatuas,http://patrimonioypaisaje.madrid.es/portales/monumenta/es/Monumentos/Monumentos-urbanos/Antonio-Bienvenida/,Monumento a Antonio Bienvenida,3.0,"Monumento a Antonio Bienvenida, Madrid",40.417326149999994,-3.6830682588858172
Estatua Paulus,Monumentos y estatuas,http://patrimonioypaisaje.madrid.es/portales/monumenta/es/Monumentos/Monumentos-urbanos/Paulus/,Estatua Paulus,4.0,"Calle Bailen 10 Centro, 28013 Madrid España",40.4202699,-3.7129451
Cementerio Civil,Cementerios,No disponible,Cementerio Civil,4.5,"Avenida Daroca 90, 28017 Madrid España",40.4275115,-3.6479612
Parroquia De Nuestra Senora De Las Maravillas Y Santos Justo Y Pastor,"['Lugares religiosos', 'Iglesias y catedrales']",tel:%2B34%20605%2006%2001%2046,Parroquia De Nuestra Senora De Las Maravillas Y Santos Justo Y Pastor,4.5,"Calle del Dos de Mayo 11, 28004 Madrid España",40.4258068,-3.7042726
Parroquia de los Doce Apostoles.,"['Lugares religiosos', 'Iglesias y catedrales']",No disponible,Parroquia de los Doce Apostoles.,4.0,"Calle Velazquez 88, 28006 Madrid España",40.5366062,-3.4786467
Calle del Arenal,Puntos emblemáticos y de interés,https://www.tripadvisor.es/Attractions-g187514-Activities-c47-Madrid.html,Calle del Arenal,4.0,"Calle del Arenal, Madrid",40.4172633,-3.7066361
Fuente de la Concha,Puntos emblemáticos y de interés,https://www.tripadvisor.es/RestaurantsNear-g187514-d4327557-Fuente_de_la_Concha-Madrid.html,Fuente de la Concha,4.0,"Fuente de la Concha, Madrid",40.6011918,-4.1652779
Santa Iglesia Catedral de los Santos Andrés y Demetrio,"['Lugares religiosos', 'Iglesias y catedrales']",http://www.iglesiaortodoxa.net/index_archivos/Page381.htm,Santa Iglesia Catedral de los Santos Andrés y Demetrio,3.5,"Calle de Nicaragua 12, 28016 Madrid España",40.457479649999996,-3.6728419791005553
Iglesia la Virgen Peregrina,Iglesias y catedrales,No disponible,Iglesia la Virgen Peregrina,3.0,"Calle Diego de Leon 36, 28006 Madrid España",40.5471417,-3.6332563
Bunker del Jardin Del Capricho,"['Lugares históricos', 'Puntos emblemáticos y de interés', 'Bases o instalaciones militares']",https://www.esmadrid.com/informacion-turistica/parque-del-capricho,Bunker del Jardin Del Capricho,4.5,"Paseo de la Alameda de Osuna 25, 28042 Madrid España",40.4595173,-3.5877878
Divino Cautivo,Lugares religiosos,No disponible,Divino Cautivo,5.0,"Calle del General Díaz Porlier, 58, 28006 Madrid España",40.432648,-3.6765918
Centro Deportivo Municipal Playa Victoria,Complejos deportivos,https://www.madrid.es/portales/munimadrid/es/Inicio/El-Ayuntamiento/Equipamientos-deportivos/Centros-deportivos-/Principales-unidades-deportivas/Pistas-de-padel/Centro-Deportivo-Municipal-Playa-Victoria/?vgnextfmt=default&vgnextoid=c77e0a47f441f010VgnVCM2000000c205a0aRCRD&vgnextchannel=2ba230dcd6500410VgnVCM1000000b205a0aRCRD,Centro Deportivo Municipal Playa Victoria,2.5,"Calle Hierbabuena 2, 28039 Madrid España",40.6563253,-3.761876
Columna a la Santísima Virgen,Monumentos y estatuas,No disponible,Columna a la Santísima Virgen,3.5,"Paseo de Camoens, 28008 Madrid España",40.4296916,-3.7239642
Instituto Homeopático y Hospital de San Jose,Puntos emblemáticos y de interés,No disponible,Instituto Homeopático y Hospital de San Jose,3.5,"Calle Eloy Gonzalo 3 y 5, 28010 Madrid España",40.1936793,-3.6799146
Monasterio de la Concepción,Iglesias y catedrales,No disponible,Monasterio de la Concepción,3.5,"Calle de Toledo 52, 28005 Madrid España",40.4117204,-3.7082729
Casa Ruiz de Velasco,Puntos emblemáticos y de interés,No disponible,Casa Ruiz de Velasco,4.0,"Plaza Mayor 5, 28012 Madrid España",40.4150064,-3.7076962
Nudo Norte Madrid,Puntos emblemáticos y de interés,https://www.tripadvisor.es/RestaurantsNear-g187514-d4873296-Nudo_Norte_Madrid-Madrid.html,Nudo Norte Madrid,2.0,"Nudo Norte Madrid, Madrid",40.4820327,-3.6848508
Arte en Mente S.C.,Puntos emblemáticos y de interés,http://www.arteenmente.es/,Arte en Mente S.C.,5.0,"Plaza de la Armería, S/N, 28002 Madrid España",40.4163265,-3.7136018
Museo del Instituto de San Isidro,Museos de historia,No disponible,Museo del Instituto de San Isidro,3.0,"Calle Toledo 39, 28005 Madrid España",40.61271385,-4.0405906509736225
Fabrica de Tabacos,Puntos emblemáticos y de interés,No disponible,Fabrica de Tabacos,2.5,"Calle Embajadores 53, 28012 Madrid España",40.4048383,-3.702243
Medialab-Prado,Centros cívicos,http://medialab-prado.es/,Medialab-Prado,3.0,"Calle de La Alameda 15, 28014 Madrid España",40.41039525,-3.6937208149845686
Centro Comercial Albufera Plaza,Centros comerciales,http://www.albuferaplaza.com/,Centro Comercial Albufera Plaza,4.0,"Avenida Albufera 153, 28038 Madrid España",40.3918775,-3.6557306
Colegio Notarial,Puntos emblemáticos y de interés,No disponible,Colegio Notarial,3.5,"Ruiz de Alarcón 3, 28014 Madrid España",40.4127784,-3.6914374
La Estudiante de Malasaña,Monumentos y estatuas,No disponible,La Estudiante de Malasaña,4.0,"Plaza de San Ildefonso, 28004 Madrid España",40.4241682,-3.7019231840556284
Carmin Cabaret,Cabarés,https://www.facebook.com/Carm%C3%ADn-Cabaret-663799673968093/,Carmin Cabaret,5.0,"Calle Echegaray 11, 28014 Madrid España",40.4156538,-3.6995653
Parroquia de la Virgen de la Providencia y San Cayetano,Iglesias y catedrales,tel:%2B34%20917%2026%2024%2022,Parroquia de la Virgen de la Providencia y San Cayetano,4.0,"Calle Ferrer del Rio 18, 28028 Madrid España",40.434397849999996,-3.6717781080297174
Monasterio de Nuestra Señora de las Maravillas,"['Interés arquitectonico', 'Lugares religiosos', 'Iglesias y catedrales']",tel:%2B34%20914%2035%2039%2032,Monasterio de Nuestra Señora de las Maravillas,3.5,"Calle del Principe de Vergara 23, 28001 Madrid España",40.4256355,-3.6806035033783786
Escuela Superior de Canto de Madrid,"['Lugares históricos', 'Puntos emblemáticos y de interés', 'Interés arquitectonico']",http://escm.es/la-sede/,Escuela Superior de Canto de Madrid,4.5,"Calle de San Bernardo 44, 28015 Madrid España",40.4244706,-3.707302
Ciudad de la Raqueta,Complejos deportivos,http://ciudadraqueta.com/,Ciudad de la Raqueta,3.0,"Calle del Monasterio de el Paular 2, 28049 Madrid España",40.5040389,-3.7005597
Asociacion de Amigos del 4º Centenario de la Plaza Mayor,Interés arquitectonico,http://www.amigosivcentenarioplazamayormadrid2017.com/,Asociacion de Amigos del 4º Centenario de la Plaza Mayor,3.5,"Plaza Mayor, 28012 Madrid España",40.415392,-3.7073743182788528
Librería Tres Rosas Amarillas,Bibliotecas,https://www.facebook.com/libreria3rosas/,Librería Tres Rosas Amarillas,5.0,"Espíritu Santo, 12, 28004 Madrid España",40.4251895,-3.7028184
Parroquia de San Francisco Javier,Iglesias y catedrales,tel:%2B34%20917%2033%2067%2096,Parroquia de San Francisco Javier,3.5,"Calle Martires de La Ventilla 34, 28029 Madrid España",40.47109905000001,-3.6911134991397994
My Time Fitness & Wellness,Campamentos deportivos,https://www.mytimefw.com/,My Time Fitness & Wellness,5.0,"Calle Asura 115, 28043 Madrid España",40.4581884,-3.6552688
Farmacia Deleuze Isasi,Puntos emblemáticos y de interés,No disponible,Farmacia Deleuze Isasi,5.0,"Calle San Bernardo 39, 28015 Madrid España",40.4829687,-3.3693968
Club de Tenis Chamartin,Complejos deportivos,https://www.ctchamartin.es/,Club de Tenis Chamartin,4.0,"Calle de Federico Salmon 4, 28016 Madrid España",40.4612969,-3.6681325
Outlet Shop,Outlets,http://outletshop.es/,Outlet Shop,4.0,"Calle de La Cruz Verde 24, 28004 Madrid España",40.4241495,-3.7070095
Consejo de Estado,"['Puntos emblemáticos y de interés', 'Interés arquitectonico', 'Edificios gubernamentales']",http://www.consejo-estado.es/,Consejo de Estado,4.0,"Calle Mayor 79, 28013 Madrid España",40.4815721,-3.3678011
Homenaje a la Mujer,Monumentos y estatuas,No disponible,Homenaje a la Mujer,3.0,"Plaza de Alsacia, 28032 Madrid España",40.4172111,-3.6227281
Galería del Cisne,Galerías de arte,tel:%2B34%20913%2010%2007%2022,Galería del Cisne,4.5,"Paseo Eduardo Dato 17, 28010 Madrid España",40.432407,-3.6973722
Suristán,Teatros,tel:%2B34%20915%2032%2039%2009,Suristán,5.0,"Calle de San Juan de La Cruz 7, 28028 Madrid España",40.4324711,-3.6688408
Galeria Duran,Galerías de arte,tel:%2B34%20914%2031%2066%2005,Galeria Duran,4.5,"Calle Serrano 30, 28001 Madrid España",40.4246073,-3.6877743
Colección SOLO,Galerías de arte,https://coleccionsolo.com/,Colección SOLO,5.0,"Plaza De La Independencia 5, 28001 Madrid España",40.4205566,-3.6881487
Convento de la Latina,Puntos emblemáticos y de interés,https://www.tripadvisor.es/Restaurants-g187514-Madrid.html,Convento de la Latina,2.5,"Convento de la Latina, Madrid",40.4146902,-3.7102736
Puente de Castilla,Puntos emblemáticos y de interés,https://www.tripadvisor.es/Attractions-g187514-Activities-c47-Madrid.html,Puente de Castilla,3.0,"Puente de Castilla, Madrid",40.4342598,-3.7338887
Museo Postal y Telegrafico,"['Museos especializados', 'Museos de ciencias']",http://www.museopostalytelegrafico.es/,Museo Postal y Telegrafico,4.0,"Calle Tapia de Casariego 6, 28023 Madrid España",40.4630493,-3.7770921
Equinarea Educa,Campamentos deportivos,http://www.equinarea-educa.com/actividades/clases-de-equitacion/,Equinarea Educa,5.0,"Calle de la Estacion, s/n, 28792 Madrid España",40.8073675,-3.7517369
Centro Deportivo Municipal La Almudena,Complejos deportivos,http://www.madrid.es/portales/munimadrid/es/Inicio/El-Ayuntamiento/Deportes/Equipamientos-deportivos/Centros-deportivos-/Deportes/Waterpolo/Centro-Deportivo-Municipal-La-Almudena?vgnextfmt=default&vgnextoid=ff13318c05b24110VgnVCM1000000b205a0aRCRD&vgnextchannel=44834569d99c6310VgnVCM2000000c205a0aRCRD,Centro Deportivo Municipal La Almudena,3.0,"Calle de Nicolas Salmeron 8, 28017 Madrid España",40.4207077,-3.632674
Casa de Cervantes,"['Lugares históricos', 'Puntos emblemáticos y de interés']",No disponible,Casa de Cervantes,3.0,"Calle Cervantes 2, 28014 Madrid España",40.414297,-3.6985628
Renoir Retiro,Puntos emblemáticos y de interés,http://www.cinesrenoir.com/,Renoir Retiro,2.5,"Renoir Retiro, Madrid",40.4200969,-3.6764364361417776
Parque Casino de la Reina,Parques,No disponible,Parque Casino de la Reina,3.0,"Calle de Embajadores, 68, 28012 Madrid España",40.406206850000004,-3.703867955257142
Teatro Pradillo,Teatros,tel:%2B34%20914%2016%2090%2011,Teatro Pradillo,2.5,"Calle Pradillo 12, 28002 Madrid España",40.5771336,-4.012691991765917
Archivo Histórico de Protocolos de Madrid,Bibliotecas,http://www.madrid.org/archivos/index.php/quienes-somos/conocenos/archivo-historico-de-protocolos,Archivo Histórico de Protocolos de Madrid,3.5,"Calle de Ramirez de Prado 3, 28045 Madrid España",40.3994273,-3.6896341
Viviendas en Principe de Vergara,Puntos emblemáticos y de interés,No disponible,Viviendas en Principe de Vergara,4.5,"Calle Alcala 121, 28009 Madrid España",40.4206967,-3.6851451
Museo de Farmacia Militar,Museos especializados,http://www.madrid.es/portal/site/munimadrid/menuitem.8b2184148b70b0aa7d245f019fc08a0c/?vgnextoid=ea0aef4d7f71c010VgnVCM1000000b205a0aRCRD&vgnextchannel=8db7566813946010VgnVCM100000dc0ca8c0RCRD,Museo de Farmacia Militar,3.0,"Calle Embajadores 75, 28012 Madrid España",40.40318795,-3.700159411535115
Polideportivo Antonio Magariños,Complejos deportivos,http://www.clubestudiantes.com/,Polideportivo Antonio Magariños,3.0,"Calle de Serrano 127, 28006 Madrid España",40.4423821,-3.6863904334441706
Sabrina Amrani Gallery,"['Galerías de arte', 'Puntos emblemáticos y de interés']",http://www.sabrinaamrani.com/,Sabrina Amrani Gallery,3.5,"Calle Madera 23, 28004 Madrid España",40.0656242,-3.2438991
Antiguo Vestibulo De La Estacion Pacifico,Lugares históricos,No disponible,Antiguo Vestibulo De La Estacion Pacifico,4.0,"Avenida de la Ciudad de Barcelona 79, 28007 Madrid España",40.4013238,-3.6748372
Capilla de San Ildefonso,"['Lugares históricos', 'Interés arquitectonico', 'Lugares religiosos', 'Sitios educativos']",http://www2.uah.es/infraestructura/Campus%20Ciudad/pag%20capilla.htm,Capilla de San Ildefonso,4.5,"Capilla de San Ildefonso, Madrid",40.48248065,-3.3635023429364796
Delimbo Gallery,Galerías de arte,http://www.delimbo.com/art/delimbo-gallery-madrid-opening-show/,Delimbo Gallery,4.5,"Calle del Doctor Fourquet 30, 28012 Madrid España",40.4070217,-3.6995042
Iglesia de San Sebastián Martir,Iglesias y catedrales,http://sansebastiancarabanchel.archimadrid.es/,Iglesia de San Sebastián Martir,2.5,"Plaza de la Parroquia 1, 28025 Madrid España",40.3800221,-3.741016445744605
Galería Ignacio Redondo,Galerías de arte,http://www.irfinearts.com/,Galería Ignacio Redondo,4.5,"Calle Serrano 120, 28006 Madrid España",40.4526451,-3.6808674
"Centro de Creación e Investigación Cultural ""La Tortuga""",Centros cívicos,tel:%2B34%20910%2071%2009%2051,"Centro de Creación e Investigación Cultural ""La Tortuga""",4.0,"Calle Espada 6, 28012 Madrid España",40.4116648,-3.7046282
Galería 6mas1,Galerías de arte,http://www.galeria6mas1.com/,Galería 6mas1,4.0,"Calle Piamonte 21, 28004 Madrid España",40.4230933,-3.6947094
Convento Madres Mercedarias,"['Lugares religiosos', 'Iglesias y catedrales']",http://www.esmadrid.com/informacion-turistica/convento-madres-mercedarias-de-don-juan-de-alarcon,Convento Madres Mercedarias,4.0,"Calle de la Puebla 1, 28004 Madrid España",40.4219838,-3.7022918
Sala de Arte Santander,Galerías de arte,http://www.fundacionbancosantander.com/,Sala de Arte Santander,4.0,"Calle de Serrano 92, 28006 Madrid España",40.4325324,-3.686561
Asociacion Cultural Torcal,"['Interés arquitectonico', 'Centros cívicos']",tel:%2B34%20914%2048%2033%2046,Asociacion Cultural Torcal,3.0,"Calle de Santa Engracia 20, 28010 Madrid España",40.4302235,-3.6964522
Galería Casado Santapau,Galerías de arte,http://www.casadosantapau.com/,Galería Casado Santapau,4.0,"Calle Piamonte 10, 28004 Madrid España",40.4230578,-3.6953007
El Montacargas,Teatros,tel:%2B34%20915%2026%2011%2073,El Montacargas,4.0,"Calle Antillon 19, 28011 Madrid España",40.4120427,-3.7280208
Real Sociedad Económica Matritense de Amigos del País,Centros cívicos,http://www.economicamatritense.com/,Real Sociedad Económica Matritense de Amigos del País,4.5,"Plaza de la Villa 2, 28005 Madrid España",40.415207699999996,-3.7100330202839746
Parroquia Nuestra Senora de la Merced,Iglesias y catedrales,http://nsmerced.com/,Parroquia Nuestra Senora de la Merced,2.5,"Calle Corregidor Juan Francisco de Lujan 101, 28030 Madrid España",40.40185435,-3.6450368293544737
Monumento al General Cassola,Monumentos y estatuas,No disponible,Monumento al General Cassola,3.5,"Paseo Moret 2, 28008 Madrid España",40.4340388,-3.7216644
Teatro Estudio de Madrid,Teatros,tel:%2B34%20915%2032%2064%2047,Teatro Estudio de Madrid,3.5,"Calle Cabeza 14, 28012 Madrid España",40.4117886,-3.702902803173452
Monumento Elena Fortún,Monumentos y estatuas,https://www.tripadvisor.es/Restaurants-g187514-Madrid.html,Monumento Elena Fortún,3.0,"Monumento Elena Fortún, Madrid",40.4336263,-3.7272275
UCM: Biblioteca Histórica Marqués de Valdecilla,Universidades y escuelas,http://biblioteca.ucm.es/historica,UCM: Biblioteca Histórica Marqués de Valdecilla,3.5,"Noviciado 3, 28015 Madrid España",40.42546455,-3.7078976273463784
La Galeria de San Ildefonso,Centros comerciales,https://www.facebook.com/lagaleriasanildefonso/,La Galeria de San Ildefonso,3.5,"Calle de San Joaquin 7, 28004 Madrid España",40.4244978,-3.7014857
Espacio Labruc,Teatros,http://www.espaciolabruc.com/,Espacio Labruc,4.0,"Calle de La Palma 18, 28004 Madrid España",40.4263067,-3.7037609
Parque juan XXIII,Parques,http://www.madrid.es/portales/munimadrid/es/Inicio/El-Ayuntamiento/Parques-y-jardines/Patrimonio-Verde/Parques-en-Madrid/Parque-de-Juan-XXIII/?vgnextfmt=default&vgnextoid=c3376d01014be210VgnVCM2000000c205a0aRCRD&vgnextchannel=38bb1914e7d4e210VgnVCM1000000b205a0aRCRD,Parque juan XXIII,1.0,"Paseo de Juan XXIII 21, 28040 Madrid España",40.4490106,-3.7165309
Galería Arte 10,Museos de arte,http://www.arte10galeria.com/,Galería Arte 10,"Esta actividad todavía no tiene puntuación, ¡se el primero!","Calle Sanchez Bustillo 7, 28012 Madrid España",40.4089421,-3.6933891
Parroquia de Nuestra Senora de Madrid,Puntos emblemáticos y de interés,https://www.tripadvisor.es/Restaurants-g187514-Madrid.html,Parroquia de Nuestra Senora de Madrid,3.0,"Parroquia de Nuestra Senora de Madrid, Madrid",40.38491435,-3.747939225376107
Parque Peñuelas,Parques,https://www.tripadvisor.es/Attractions-g187514-Activities-c57-Madrid.html,Parque Peñuelas,2.0,"Parque Peñuelas, Madrid",40.399909300000004,-3.7047984618505234
Centro Cultural Islámico de Madrid,"['Interés arquitectonico', 'Lugares religiosos']",http://ccislamicomadrid.blogspot.com.co/,Centro Cultural Islámico de Madrid,3.0,"Calle de Salvador de Madariaga 4, 28027 Madrid España",40.439388,-3.6569569
Plaza Del Rastrillo,Puntos emblemáticos y de interés,No disponible,Plaza Del Rastrillo,3.0,"Plaza Del Rastrillo, 28004 Madrid España",40.42532275000001,-3.703929107658808
Nosotras Juntas,Puntos emblemáticos y de interés,No disponible,Nosotras Juntas,3.0,"Calle Gran Via 35, 28013 Madrid España",40.471293,-3.8713528
Casa de Los Pinos,Puntos emblemáticos y de interés,https://www.tripadvisor.es/Attractions-g187514-Activities-c47-Madrid.html,Casa de Los Pinos,3.0,"Casa de Los Pinos, Madrid",40.4274046,-3.7723368
Museum of Mesonero Romanos,Museos especializados,No disponible,Museum of Mesonero Romanos,1.0,"Plaza Mayor 27, 28012 Madrid España",40.4158894,-3.7073989350420167
Madrid Day Spa by Nuilea,"['Baños árabes', 'Baños turcos', 'Spas']",http://madrid-day-spa.com/,Madrid Day Spa by Nuilea,4.5,"Calle del León 4, 28014 Madrid España",40.4144879,-3.6987909036470326
Forus Barcelo,Gimnasios,http://forus.es/barcelo,Forus Barcelo,4.5,"Calle Barceló 6, 28004 Madrid España",40.426544899999996,-3.698786316244
Teatro de la Luz Philips Gran Vía,"['Cines', 'Teatros']",http://gruposmedia.com/teatro-edp-gran-via/,Teatro de la Luz Philips Gran Vía,4.0,"Calle Gran Vía 66, 28013 Madrid España",40.47083205,-3.871344282431271
Edén de Huertas,Bares y discotecas,http://eledendehuertas.com/,Edén de Huertas,5.0,"Calle huertas 67, 28014 Madrid España",41.0610748,-3.5456222
Red Helmet Experience - Madrid,Centros de juego y entretenimiento,http://madrid.redhelmetvr.com/,Red Helmet Experience - Madrid,5.0,"C/ Reina Mercedes, 17, 28020 Madrid España",40.436316,-3.8122696
Playback Madrid,Bares de karaoke,http://playbackmadrid.com/,Playback Madrid,5.0,"Piamonte 12, 28004 Madrid España",40.4230501,-3.6951169
Calle de Serrano,Recorridos de compras,https://tripadvisor.mediaroom.com/ES-terms-of-use,Calle de Serrano,4.5,"Calle de Serrano, Madrid",40.4204472,-3.6887362
Macchinine,"['Tiendas de regalos y especializadas', 'Anticuarios']",http://www.macchinine.com/,Macchinine,5.0,"Barquillo 7, 28004 Madrid España",40.4204853,-3.6957921
Pandora Room Escape Room,Juegos de escape,http://www.pandoraroom.es/,Pandora Room Escape Room,4.5,"Calle de Francisco Navacerrada 30, 28028 Madrid España",40.4312735,-3.667291
Cervecería Al Tran Tran,Bares y discotecas,http://www.cerveceriaaltrantran.es/,Cervecería Al Tran Tran,4.5,"Avd. de Logroño 323, 28042 Madrid España",40.4723211,-3.5820836
Flamenco En El Backstage de Pablo Ruben Maldonado,"['Ballet', 'Teatros y actuaciones']",http://www.pablorubenmaldonado.eu/,Flamenco En El Backstage de Pablo Ruben Maldonado,5.0,"Fuenterrabía, 4, 28014 Madrid España",40.40613785,-3.6814466690048135
La Chocita del Loro,Clubs de comedia,http://lachocitadelloro.com/,La Chocita del Loro,4.0,"Calle Gran Via 70, 28013 Madrid España",40.47083205,-3.871344282431271
Apetit'Oh! Cooking Workshop,Clases de cocina,http://apetitoh.com/,Apetit'Oh! Cooking Workshop,4.5,"Calle Seco 14, 28007 Madrid España",40.39826805,-3.673201496481119
La Casa Encendida,"['Galerías de arte', 'Teatros y actuaciones']",http://www.lacasaencendida.es/,La Casa Encendida,4.0,"Ronda Valencia 2, 28012 Madrid España",40.406070549999995,-3.699885169087702
Masajes Orientales Xiao Ying,Spas,http://masajes-xiaoying-madrid.com/,Masajes Orientales Xiao Ying,4.5,"Calle Hermosilla 102, 28009 Madrid España",40.4256759,-3.6721787
Casa Alberto,Bares y discotecas,http://www.casaalberto.es/,Casa Alberto,4.0,"Casa Alberto, Madrid",40.4138199,-3.7001224
Shyk,Bares y discotecas,tel:%2B34%20910%2051%2064%2010,Shyk,5.0,"Paseo Zurron 9, 28042 Madrid España",40.4695662,-3.5862734
Filmoteca Española (Cine Doré),"['Cines', 'Teatros']",http://www.mecd.gob.es/cultura-mecd/areas-cultura/cine/mc/fe/cine-dore,Filmoteca Española (Cine Doré),4.5,"Calle de Santa Isabel 3, 28012 Madrid España",40.4118385,-3.699128629995088
The Room Madrid,Bares y discotecas,https://www.facebook.com/The-Room-Madrid-Cocktail-Hookah-Dance-Bar-1112858435420029/,The Room Madrid,4.5,"Calle Cruz 33, 28012 Madrid España",40.6251058,-4.0091301
Josealfredo,Bares y discotecas,http://josealfredobar.com/,Josealfredo,4.5,"calle Silva 22, 28004 Madrid España",40.4216136,-3.7058658
Malatesta,Bares y discotecas,http://www.trattoriamalatesta.com/,Malatesta,4.5,"Calle del Olmo,3, 28012 Madrid España",40.4115583,-3.7014406
Salmon Guru,Bares y discotecas,http://www.salmonguru.es/,Salmon Guru,4.5,"Calle Echegaray 21, 28014 Madrid España",40.4149017,-3.6995344
Taproom Madrid,Bares y discotecas,http://taproom.es/,Taproom Madrid,4.0,"Calle Guzman El Bueno Nº 52, 28015 Madrid España",40.5695722,-4.2670504
AreaVR - Virtual Reality,"['Juegos de escape', 'Centros de juego y entretenimiento']",http://www.areavr.es/,AreaVR - Virtual Reality,5.0,"C. Clara del Rey, 57, 28002 Madrid España",40.4429927,-3.669342
Twist & Shout Bar,"['Bares y discotecas', 'Bares gay']",http://www.facebook.com/twistandshoutbar/,Twist & Shout Bar,4.5,"C/ San Bartolome 22, 28004 Madrid España",40.7622164,-3.7880182
Delic,Bares y discotecas,http://www.delic.es/,Delic,4.0,"Costanilla de San Andrés,14, 28005 Madrid España",40.4134177,-3.7116736
Las Cuevas de Sandó,Bares y discotecas,http://cuevasdesando.com/es,Las Cuevas de Sandó,4.5,"Plaza Santo Domingo 13, 28013 Madrid España",40.3444555,-3.8267065
El Junco Live Music,"['Bares y discotecas', 'Bares de jazz']",http://www.eljunco.com/,El Junco Live Music,4.5,"Plaza Santa Bárbara 10, 28004 Madrid España",40.4263767,-3.6961962055010673
La Paca Café Bar,Bares y discotecas,https://www.facebook.com/LaPacaCafeBar,La Paca Café Bar,4.5,"Calle Valverde No 36, 28004 Madrid España",40.4319648,-3.3008384
Vinoteca El Sumiller,Tiendas de regalos y especializadas,http://www.vinotecaelsumiller.es/,Vinoteca El Sumiller,5.0,"Calle Illescas 69, 28024 Madrid España",40.3930238,-3.7604757
The Keyword,Juegos de escape,http://www.thekeyword.es/,The Keyword,4.5,"Calle Jaenar, 37, 28043 Madrid España",40.4539807,-3.649279
The Irish Rover,Bares y discotecas,http://www.theirishrover.com/,The Irish Rover,4.0,"Avenida de Brasil, 7, 28020 Madrid España",40.4547254,-3.6939836
Havana Blues,"['Bares y discotecas', 'Bares de blues']",https://www.facebook.com/Havana-Blues-138385622966742/,Havana Blues,4.5,"Paseo de Santa María de la Cabeza 56, 28045 Madrid España",40.4021252,-3.6985008
MasvitalZenter,Spas,http://www.masvital.org/,MasvitalZenter,4.0,"Calle Cruz 28, 28012 Madrid España",40.6251058,-4.0091301
Juglar x Flamenco,Teatros y actuaciones,http://www.flamencoenmadrid.es/,Juglar x Flamenco,5.0,"Calle de Lavapiés, 37, 28012 Madrid España",40.4097171,-3.702176
Restaurante Mayser,Bares y discotecas,http://www.restaurantemayser.com/,Restaurante Mayser,4.5,"Calle Sambara 95, 28027 Madrid España",40.4371165,-3.6439051
Rincón de La Habana,Bares y discotecas,http://www.facebook.com/pages/category/Bar/Rinc%C3%B3n-de-La-Habana-445248112183005/,Rincón de La Habana,4.5,"calle de los Reyes 6, 28015 Madrid España",40.4242496,-3.7093609
La Caña de Gonzalo,Bares y discotecas,http://www.facebook.com/LaCanadeGonzalo,La Caña de Gonzalo,4.0,"Av de Logroño 205, 28042 Madrid España",40.4620679,-3.5905231
Bingo Las Vegas,Centros de juego y entretenimiento,http://www.bingolasvegas.es/,Bingo Las Vegas,4.0,"Calle Hermanos Garcia Noblejas, nº 17, 28037 Madrid España",40.3611511,-3.9031932
